#
# proAIS2 Started log file at 14:29:52 2016/07/09
#
$GPRMC,182948.00,A,1159.97590,N,06145.86237,W,0.191,,090716,,,D*69
!AIVDM,1,1,,B,B:U721@00NqDNC1elpjlwwp5oP06,0*38
!AIVDM,1,1,,A,B5NORL000>qE9NQeqJNkswp5oP06,0*51
!AIVDO,1,1,,,B3KMVtP00fqD?P1eo0vWgwp5oP06,0*1A
$GPRMC,182949.00,A,1159.97603,N,06145.86239,W,0.627,328.59,090716,,,D*7E
$GPRMC,182950.00,A,1159.97614,N,06145.86240,W,0.322,331.57,090716,,,D*78
!AIVDM,1,1,,A,34R6Mr0Oi:KTn5t6lodo05WR00rA,0*6B
!AIVDO,1,1,,,B3KMVtP00vqD?P1eo17?Cwq5oP06,0*07
$GPRMC,182951.00,A,1159.97612,N,06145.86244,W,0.225,,090716,,,D*60
!AIVDM,1,1,,B,H5WidR1>uV04pLDj0LhuL000000,2*45
$GPRMC,182952.00,A,1159.97609,N,06145.86248,W,0.113,,090716,,,D*63
!AIVDM,1,1,,B,34R6Mr0Oi:KTn5v6loRG0UWV00uP,0*06
!AIVDM,1,1,,A,1000000P02KUBS46qR@WwOwVp8Nj,0*09
!AIVDO,1,1,,,B3KMVtP00NqD?OQeo17?Cwr5oP06,0*43
$GPRMC,182953.00,A,1159.97620,N,06145.86250,W,0.561,348.98,090716,,,D*71
!AIVDM,1,1,,A,B52LNjP0B>qBsUQf;qBE7wrUoP06,0*26
$GPRMC,182954.00,A,1159.97630,N,06145.86253,W,0.311,345.89,090716,,,D*78
!AIVDM,1,1,,B,14h?K60P01KUEmv6q5kmUgwf0<05,0*75
!AIVDO,1,1,,,B3KMVtP00vqD?OQeo1?H?ws5oP06,0*79
$GPRMC,182955.00,A,1159.97631,N,06145.86254,W,0.084,,090716,,,D*6D
$GPRMC,182956.00,A,1159.97631,N,06145.86255,W,0.061,,090716,,,D*64
!AIVDO,1,1,,,B3KMVtP00NqD?O1eo1?H?wt5oP06,0*26
$GPRMC,182957.00,A,1159.97636,N,06145.86256,W,0.261,351.63,090716,,,D*7F
!AIVDM,1,1,,A,34R6Mr0Oi:KTn626lo=nwUWf00w@,0*61
$GPRMC,182958.00,A,1159.97648,N,06145.86253,W,0.496,13.39,090716,,,D*48
!AIVDM,1,1,,B,34R6Mr0Oi:KTn5v6lo370mWj0000,0*36
$GPRMC,182959.00,A,1159.97647,N,06145.86253,W,0.292,334.12,090716,,,D*7B
!AIVDO,1,1,,,B3KMVtP00vqD?OQeo1G@owuUoP06,0*3F
$GPRMC,183000.00,A,1159.97643,N,06145.86254,W,0.196,279.19,090716,,,D*78
!AIVDM,1,1,,B,34R6Mr0Oi:KTn626lnq71EWn011A,0*6E
$GPRMC,183001.00,A,1159.97653,N,06145.86251,W,0.584,6.47,090716,,,D*7B
!AIVDO,1,1,,,B3KMVtP01fqD?OQeo1D47wPUoP06,0*24
$GPRMC,183002.00,A,1159.97660,N,06145.86248,W,0.156,,090716,,,D*60
!AIVDM,1,1,,B,1000000P02KUBS26qR@`1wv2p6Ap,0*3B
$GPRMC,183003.00,A,1159.97655,N,06145.86250,W,0.389,329.95,090716,,,D*74
!AIVDO,1,1,,,B3KMVtP01>qD?OQeo1K>CwQUoP06,0*0C
!AIVDM,1,1,,B,H5WidR4TCBD74Oa:pIkjlo1p5830,0*16
!AIVDM,1,1,,A,34R6Mr0Oi:KTn626lnTFwUV60000,0*47
$GPRMC,183004.00,A,1159.97658,N,06145.86249,W,0.251,350.55,090716,,,D*70
!AIVDM,1,1,,B,B3P>A@@0?vqD5IQf;ar?wwR5oP06,0*35
!AIVDM,1,1,,B,B5WidR000fqDdf1f?jhJ3wR5oP06,0*01
$GPRMC,183005.00,A,1159.97661,N,06145.86247,W,0.064,,090716,,,D*69
!AIVDO,1,1,,,B3KMVtP00NqD?OQeo1KK;wRUoP06,0*73
$GPRMC,183006.00,A,1159.97665,N,06145.86244,W,0.211,19.76,090716,,,D*4A
$GPRMC,183007.00,A,1159.97663,N,06145.86241,W,0.270,108.95,090716,,,D*73
!AIVDO,1,1,,,B3KMVtP00vqD?P1eo1I4;wSUoP06,0*48
!AIVDM,1,1,,B,34R6Mr0Oi:KTn666lnDo15V<00s@,0*66
!AIVDM,1,1,,B,B3aQdch00fqDu31f@<kHwwSUoP06,0*29
$GPRMC,183008.00,A,1159.97653,N,06145.86243,W,0.379,163.01,090716,,,D*75
$GPRMC,183009.00,A,1159.97656,N,06145.86240,W,0.331,130.90,090716,,,D*70
!AIVDO,1,1,,,B3KMVtP00vqD?P1eo1IAowTUoP06,0*6E
$GPRMC,183010.00,A,1159.97664,N,06145.86233,W,0.361,74.78,090716,,,D*4F
$GPRMC,183011.00,A,1159.97659,N,06145.86230,W,0.355,127.58,090716,,,D*71
!AIVDO,1,1,,,B3KMVtP01>qD?PQeo1I?kwUUoP06,0*3C
!AIVDM,1,1,,A,B40rd2000vqFg6QesCW6cwV5WP06,0*77
$GPRMC,183012.00,A,1159.97649,N,06145.86229,W,0.446,153.13,090716,,,D*72
$GPRMC,183013.00,A,1159.97648,N,06145.86227,W,0.167,,090716,,,D*61
!AIVDO,1,1,,,B3KMVtP00fqD?PQeo1EOgwVUoP06,0*16
!AIVDM,1,1,,B,34R6Mr001:KTn646lmmG0UVH0000,0*67
$GPRMC,183014.00,A,1159.97658,N,06145.86220,W,0.503,95.51,090716,,,D*40
!AIVDM,1,1,,A,14R6Mr001:KTn626lmh70UVJ06Ap,0*20
$GPRMC,183015.00,A,1159.97653,N,06145.86219,W,0.423,128.86,090716,,,D*7E
!AIVDO,1,1,,,B3KMVtP01>qD?Q1eo1E@WwWUoP06,0*10
$GPRMC,183016.00,A,1159.97646,N,06145.86219,W,0.281,140.12,090716,,,D*74
!AIVDM,1,1,,A,B7PDOJ0006qE8AQeqpna3w`5oP06,0*1B
$GPRMC,183017.00,A,1159.97640,N,06145.86216,W,0.303,147.99,090716,,,D*73
!AIVDO,1,1,,,B3KMVtP00vqD?Q1eo1ALSw`UoP06,0*62
$GPRMC,183018.00,A,1159.97645,N,06145.86211,W,0.360,101.12,090716,,,D*7A
$GPRMC,183019.00,A,1159.97648,N,06145.86205,W,0.267,99.83,090716,,,D*4D
!AIVDO,1,1,,,B3KMVtP00vqD?QQeo1DvKwaUoP06,0*24
$GPRMC,183020.00,A,1159.97639,N,06145.86204,W,0.447,159.13,090716,,,D*70
$GPRMC,183021.00,A,1159.97627,N,06145.86203,W,0.368,165.98,090716,,,D*7F
!AIVDO,1,1,,,B3KMVtP01>qD?R1eo1=WkwbUoP06,0*75
$GPRMC,183022.00,A,1159.97637,N,06145.86198,W,0.635,59.80,090716,,,D*46
!AIVDM,1,1,,B,B52LNjP0BNqBofQf;UNAkwc5oP06,0*7B
$GPRMC,183023.00,A,1159.97645,N,06145.86192,W,0.229,57.60,090716,,,D*41
!AIVDM,1,1,,A,3:5dBd1P00KUDwv6q@geB?vh0Dv:,0*3C
!AIVDO,1,1,,,B3KMVtP00fqD?RQeo1DT3wcUoP06,0*6F
!AIVDM,1,1,,A,14h?K60P?w<tSF0l4Q@>4?wp06Ap,0*00
$GPRMC,183024.00,A,1159.97634,N,06145.86193,W,0.623,178.94,090716,,,D*78
!AIVDM,1,1,,B,H3P>A@@h5E860@5Lp0000000000,2*1C
!AIVDM,1,1,,B,H7`BAM0hT8E9AV08iDD00000000,2*48
$GPRMC,183025.00,A,1159.97620,N,06145.86192,W,0.408,175.07,090716,,,D*71
!AIVDO,1,1,,,B3KMVtP01>qD?RQeo19eOwdUoP06,0*01
!AIVDM,1,1,,B,14R6Mr001:KTn6:6llj70UVj0H?=,0*45
$GPRMC,183026.00,A,1159.97626,N,06145.86189,W,0.502,82.50,090716,,,D*4E
!AIVDM,1,1,,B,H7`BAM4U71B=9>0J=7jqpj189440,0*1A
$GPRMC,183027.00,A,1159.97636,N,06145.86185,W,0.321,64.83,090716,,,D*43
!AIVDO,1,1,,,B3KMVtP00vqD?RQeo1@`SweUoP06,0*29
$GPRMC,183028.00,A,1159.97628,N,06145.86184,W,0.470,151.10,090716,,,D*7C
$GPRMC,183029.00,A,1159.97614,N,06145.86186,W,0.457,168.90,090716,,,D*77
!AIVDO,1,1,,,B3KMVtP01NqD?RQeo15aWwfUoP06,0*63
!AIVDM,1,1,,A,14R6Mr001:KTn6>6llRo0UVp0<0E,0*3B
$GPRMC,183030.00,A,1159.97618,N,06145.86183,W,0.458,95.32,090716,,,D*42
!AIVDM,1,1,,A,1000000P01KUBRt6qR@=Tgvrp@B3,0*22
$GPRMC,183031.00,A,1159.97628,N,06145.86180,W,0.379,56.68,090716,,,D*47
!AIVDO,1,1,,,B3KMVtP01>qD?S1eo1<SOwgUoP06,0*50
$GPRMC,183032.00,A,1159.97621,N,06145.86180,W,0.432,132.57,090716,,,D*7A
$GPRMC,183033.00,A,1159.97608,N,06145.86183,W,0.485,166.75,090716,,,D*7E
!AIVDO,1,1,,,B3KMVtP01NqD?S1eo15`CwhUoP06,0*19
$GPRMC,183034.00,A,1159.97610,N,06145.86184,W,0.321,114.86,090716,,,D*77
!AIVDM,1,1,,A,B5NR:GP00>qE921eqWOCCwhUoP06,0*2F
!AIVDM,1,1,,B,H3P>A@DTCBD5J;Aj:19n00106530,0*56
$GPRMC,183035.00,A,1159.97619,N,06145.86182,W,0.316,64.24,090716,,,D*43
!AIVDM,1,1,,A,B3P>A@@0>vqD2>Qf;Dn>SwiUoP06,0*00
!AIVDM,1,1,,A,14R6Mr001:KTn6@6ll3o1EU40D0E,0*0A
!AIVDO,1,1,,,B3KMVtP00vqD?S1eo18`;wiUoP06,0*54
!AIVDM,1,1,,A,14R6Mr001:KTn6@6ll3o1EU406Ap,0*3C
$GPRMC,183036.00,A,1159.97619,N,06145.86185,W,0.183,,090716,,,D*63
$GPRMC,183037.00,A,1159.97614,N,06145.86188,W,0.205,106.00,090716,,,D*76
!AIVDO,1,1,,,B3KMVtP00fqD?RQeo152CwjUoP06,0*01
$GPRMC,183038.00,A,1159.97610,N,06145.86190,W,0.074,,090716,,,D*69
$GPRMC,183039.00,A,1159.97609,N,06145.86192,W,0.056,,090716,,,D*62
!AIVDO,1,1,,,B3KMVtP00NqD?RQeo152CwkUoP06,0*28
$GPRMC,183040.00,A,1159.97614,N,06145.86193,W,0.241,46.39,090716,,,D*43
!AIVDM,1,1,,B,14R6Mr001:KTn6H6lkb6wmU>0L0E,0*62
$GPRMC,183041.00,A,1159.97614,N,06145.86196,W,0.144,,090716,,,D*67
!AIVDO,1,1,,,B3KMVtP00NqD?R1eo14M3wlUoP06,0*41
$GPRMC,183042.00,A,1159.97603,N,06145.86202,W,0.501,172.26,090716,,,D*77
$GPRMC,183043.00,A,1159.97606,N,06145.86208,W,0.302,233.83,090716,,,D*75
!AIVDO,1,1,,,B3KMVtP00vqD?QQeo16B;wmUoP06,0*1E
$GPRMC,183044.00,A,1159.97618,N,06145.86211,W,0.519,322.07,090716,,,D*74
!AIVDM,1,1,,B,34R6Mr0Oi:KTn6J6lkEG05UF019Q,0*14
!AIVDM,1,1,,A,H3aDBAP8Dhh60<T4t0000000000,2*7B
$GPRMC,183045.00,A,1159.97616,N,06145.86217,W,0.436,293.42,090716,,,D*7B
!AIVDM,1,1,,A,H3aDBATU13Bijk0@2kpkp0000000,0*20
!AIVDO,1,1,,,B3KMVtP01>qD?Q1eo1:oKwnUoP06,0*65
$GPRMC,183046.00,A,1159.97607,N,06145.86225,W,0.411,261.04,090716,,,D*73
$GPRMC,183047.00,A,1159.97613,N,06145.86228,W,0.443,322.40,090716,,,D*7B
!AIVDO,1,1,,,B3KMVtP01>qD?PQeo179SwoUoP06,0*46
$GPRMC,183048.00,A,1159.97619,N,06145.86233,W,0.284,313.04,090716,,,D*7B
$GPRMC,183049.00,A,1159.97616,N,06145.86240,W,0.307,278.26,090716,,,D*77
!AIVDO,1,1,,,B3KMVtP00vqD?P1eo1:ewwpUoP06,0*05
$GPRMC,183050.00,A,1159.97615,N,06145.86248,W,0.277,273.27,090716,,,D*78
!AIVDM,1,1,,A,34R6Mr0Oi9KTn6N6ljnFwUWR00tA,0*56
$GPRMC,183051.00,A,1159.97623,N,06145.86254,W,0.455,326.11,090716,,,D*73
!AIVDO,1,1,,,B3KMVtP01NqD?OQeo1;;owqUoP06,0*05
!AIVDM,1,1,,B,B3aDBAP00VqDm5Qf>htuSwqUoP06,0*40
!AIVDM,1,1,,A,B52LNjP0B>qBl7Qf;>f?KwqUoP06,0*35
$GPRMC,183052.00,A,1159.97623,N,06145.86259,W,0.270,309.75,090716,,,D*73
!AIVDM,1,1,,A,1000000P01KUBRr6qR?pLOwVp6Ap,0*35
!AIVDM,1,1,,B,34R6Mr0Oi9KTn6R6ljd6wUWV00sh,0*19
!AIVDM,1,1,,A,B7`BAM0006qE8IQequnngwr5kP06,0*64
$GPRMC,183053.00,A,1159.97619,N,06145.86268,W,0.410,267.01,090716,,,D*73
!AIVDO,1,1,,,B3KMVtP01>qD?NQeo1:VswrUoP06,0*07
$GPRMC,183054.00,A,1159.97625,N,06145.86272,W,0.390,316.62,090716,,,D*7D
$GPRMC,183055.00,A,1159.97628,N,06145.86279,W,0.324,295.91,090716,,,D*73
!AIVDM,1,1,,B,B3aKViP00FqDIcQeoS66Gws5kP06,0*0B
!AIVDO,1,1,,,B3KMVtP00vqD?N1eo1>pwwsUoP06,0*09
$GPRMC,183056.00,A,1159.97624,N,06145.86286,W,0.316,272.19,090716,,,D*74
!AIVDM,1,1,,A,B3uFV1P00nqDTqQenu=QOwsUoP06,0*49
$GPRMC,183057.00,A,1159.97623,N,06145.86292,W,0.222,275.28,090716,,,D*74
!AIVDM,1,1,,A,34R6Mr0Oi9KTn6b6ljGnvmWf00u0,0*06
!AIVDO,1,1,,,B3KMVtP00fqD?MQeo1:d7wtUoP06,0*2D
$GPRMC,183058.00,A,1159.97633,N,06145.86298,W,0.458,326.98,090716,,,D*77
!AIVDM,1,1,,A,B3P>2eh006qDdDQf=k>VCwtUkP06,0*04
!AIVDM,1,1,,A,H5NVc`1<tlD@5T0000000000000,2*02
!AIVDM,1,1,,B,34R6Mr0Oi9KTn6`6lj=Fw5Wj0000,0*45
$GPRMC,183059.00,A,1159.97636,N,06145.86304,W,0.207,315.80,090716,,,D*72
!AIVDM,1,1,,A,H3uHBMPp4pqT000000000000000,2*1C
!AIVDO,1,1,,,B3KMVtP00fqD?M1eo1C5KwuUoP06,0*18
$GPRMC,183100.00,A,1159.97623,N,06145.86314,W,0.740,224.66,090716,,,D*77
!AIVDM,1,1,,B,34R6Mr0Oi9KTn6d6lj36wUWn00uA,0*6F
$GPRMC,183101.00,A,1159.97625,N,06145.86319,W,0.350,252.93,090716,,,D*73
!AIVDO,1,1,,,B3KMVtP01>qD?L1eo1>N7wPUoP06,0*1F
$GPRMC,183102.00,A,1159.97632,N,06145.86321,W,0.252,283.11,090716,,,D*78
!AIVDM,1,1,,B,1000000P03KUBRp6qR?Vbwv2p0S6,0*31
$GPRMC,183103.00,A,1159.97625,N,06145.86328,W,0.515,232.73,090716,,,D*7C
!AIVDM,1,1,,A,34R6Mr0Oi9KTn6f6likVw5`40000,0*6C
!AIVDO,1,1,,,B3KMVtP01NqD?KQeo1>AOwQUoP06,0*7E
$GPRMC,183104.00,A,1159.97615,N,06145.86333,W,0.334,225.47,090716,,,D*76
!AIVDM,1,1,,B,B52Hid@00NqEF9QeqC8PowR5oP06,0*48
$GPRMC,183105.00,A,1159.97620,N,06145.86335,W,0.378,306.96,090716,,,D*73
!AIVDO,1,1,,,B3KMVtP01>qD?K1eo1:wswRUoP06,0*63
!AIVDM,1,1,,B,B3P>A@@0>fqCwO1f:wB<gwRUoP06,0*53
$GPRMC,183106.00,A,1159.97624,N,06145.86338,W,0.150,,090716,,,D*65
!AIVDM,1,1,,B,34R6Mr0Oi9KTn6j6liTVwE`:012P,0*41
$GPRMC,183107.00,A,1159.97619,N,06145.86339,W,0.287,272.92,090716,,,D*70
!AIVDO,1,1,,,B3KMVtP00vqD?K1eo1:bWwSUoP06,0*1A
$GPRMC,183108.00,A,1159.97608,N,06145.86341,W,0.384,223.79,090716,,,D*73
!AIVDM,1,1,,A,H5NIaO0<4hhU=@t000000000000,2*14
!AIVDM,1,1,,A,H5NIaO4T71B=9>0G45qpkj1`1310,0*48
$GPRMC,183109.00,A,1159.97613,N,06145.86341,W,0.365,288.62,090716,,,D*7C
!AIVDM,1,1,,A,H3uHBMTTD816HLDC3mqmp00h5300,0*4B
!AIVDO,1,1,,,B3KMVtP01>qD?K1eo16lKwTUoP06,0*4A
$GPRMC,183110.00,A,1159.97619,N,06145.86341,W,0.266,321.31,090716,,,D*78
$GPRMC,183111.00,A,1159.97611,N,06145.86341,W,0.475,211.70,090716,,,D*72
!AIVDM,1,1,,B,B4eHg3h00fqEApQeom:>swU5oP06,0*4E
!AIVDO,1,1,,,B3KMVtP01NqD?K1eo164GwUUoP06,0*6F
$GPRMC,183112.00,A,1159.97605,N,06145.86339,W,0.101,,090716,,,D*66
!AIVDM,1,1,,B,14h?K60P00sUEk@6q5bmIOvJ20S5,0*01
$GPRMC,183113.00,A,1159.97613,N,06145.86335,W,0.488,270.93,090716,,,D*79
!AIVDM,1,1,,B,34R6Mr0Oi9KTn6j6lhsVwE`J0000,0*74
!AIVDO,1,1,,,B3KMVtP01NqD?K1eo16aGwVUoP06,0*39
$GPRMC,183114.00,A,1159.97616,N,06145.86331,W,0.142,,090716,,,D*6D
!AIVDM,1,1,,A,34R6Mr0Oi9KTn6j6lhsVwE`J018Q,0*1F
$GPRMC,183115.00,A,1159.97619,N,06145.86326,W,0.229,,090716,,,D*6B
$GPRMC,183116.00,A,1159.97616,N,06145.86319,W,0.283,215.99,090716,,,D*73
!AIVDO,1,1,,,B3KMVtP00vqD?L1eo1:73w`5oP06,0*7F
$GPRMC,183117.00,A,1159.97613,N,06145.86313,W,0.168,,090716,,,D*63
$GPRMC,183118.00,A,1159.97626,N,06145.86306,W,0.737,349.26,090716,,,D*76
!AIVDO,1,1,,,B3KMVtP01vqD?LQeo1?JGwa5oP06,0*13
!AIVDM,1,1,,B,B5Nb=VP006qED=1f@VD;?w`UkP06,0*40
$GPRMC,183119.00,A,1159.97635,N,06145.86300,W,0.277,355.51,090716,,,D*7F
$GPRMC,183120.00,A,1159.97628,N,06145.86294,W,0.423,127.99,090716,,,D*71
!AIVDO,1,1,,,B3KMVtP01>qD?MQeo1=@3wb5oP06,0*25
$GPRMC,183121.00,A,1159.97630,N,06145.86286,W,0.370,109.62,090716,,,D*73
$GPRMC,183122.00,A,1159.97641,N,06145.86280,W,0.583,35.69,090716,,,D*4F
!AIVDO,1,1,,,B3KMVtP01fqD?N1eo1@FGwc5oP06,0*10
!AIVDM,1,1,,A,34R6Mr0019KTn6n6lhBW0EVb00th,0*21
$GPRMC,183123.00,A,1159.97652,N,06145.86272,W,0.421,41.46,090716,,,D*46
$GPRMC,183124.00,A,1159.97643,N,06145.86266,W,0.486,114.38,090716,,,D*71
!AIVDO,1,1,,,B3KMVtP01NqD?NQeo1A7Swd5oP06,0*3B
!AIVDM,1,1,,B,H5N`HkPh608Dhh61HU@40000000,2*4B
!AIVDM,1,1,,B,H5N`HkTT71B=9>0G48pqnm108230,0*5A
!AIVDM,1,1,,B,B52LNjP0BNqBhB1f:jV=Swd5oP06,0*5D
$GPRMC,183125.00,A,1159.97647,N,06145.86260,W,0.484,75.62,090716,,,D*49
!AIVDM,1,1,,B,H3uFV1PTl4LTpD0000000000000,2*48
!AIVDM,1,1,,B,14R6Mr001:KTn6f6lguo15Vj0D0G,0*4D
$GPRMC,183126.00,A,1159.97662,N,06145.86254,W,0.684,40.03,090716,,,D*49
!AIVDO,1,1,,,B3KMVtP01vqD?OQeo1HI3we5oP06,0*14
!AIVDM,1,1,,B,H3uFV1TUDBE5847C1mqqm01H0120,0*7E
$GPRMC,183127.00,A,1159.97670,N,06145.86247,W,0.274,42.64,090716,,,D*41
$GPRMC,183128.00,A,1159.97666,N,06145.86242,W,0.308,114.42,090716,,,D*70
!AIVDO,1,1,,,B3KMVtP00vqD?P1eo1M7Swf5oP06,0*72
!AIVDM,1,1,,A,34R6Mr0019KTn6p6lgkW1UVn0000,0*18
$GPRMC,183129.00,A,1159.97670,N,06145.86236,W,0.385,77.71,090716,,,D*44
!AIVDM,1,1,,A,14R6Mr001:KTn6p6lgaG05Vr08Ab,0*55
$GPRMC,183130.00,A,1159.97687,N,06145.86228,W,0.762,30.33,090716,,,D*43
!AIVDO,1,1,,,B3KMVtP02>qD?PQeo1TBwwg5oP06,0*11
$GPRMC,183131.00,A,1159.97688,N,06145.86223,W,0.243,43.90,090716,,,D*4D
$GPRMC,183132.00,A,1159.97679,N,06145.86220,W,0.388,129.04,090716,,,D*75
!AIVDO,1,1,,,B3KMVtP01>qD?Q1eo1Q@cwh5oP06,0*6F
$GPRMC,183133.00,A,1159.97690,N,06145.86215,W,0.709,50.91,090716,,,D*4B
$GPRMC,183134.00,A,1159.97705,N,06145.86206,W,0.612,41.13,090716,,,D*42
!AIVDO,1,1,,,B3KMVtP01fqD?QQeo1dIgwi5oP06,0*6E
$GPRMC,183135.00,A,1159.97700,N,06145.86203,W,0.450,90.98,090716,,,D*48
!AIVDM,1,1,,A,14R6Mr0019KTn6h6lgDG1UW20@Dh,0*3C
!AIVDM,1,1,,A,14R6Mr001:KTn6p6lg:G1UW600SG,0*15
!AIVDM,1,1,,A,B3P>A@@0>NqCtjQf:ab=7wiUoP06,0*62
$GPRMC,183136.00,A,1159.97694,N,06145.86201,W,0.142,,090716,,,D*65
!AIVDO,1,1,,,B3KMVtP00NqD?R1eo1Tpswj5oP06,0*3A
!AIVDM,1,1,,A,B5NVc`000vqF;H1es<WB3wj5oP06,0*64
$GPRMC,183137.00,A,1159.97709,N,06145.86192,W,0.879,46.55,090716,,,D*45
$GPRMC,183138.00,A,1159.97722,N,06145.86185,W,0.373,42.37,090716,,,D*44
!AIVDO,1,1,,,B3KMVtP01>qD?RQeo1hJSwk5oP06,0*0C
$GPRMC,183139.00,A,1159.97711,N,06145.86183,W,0.696,146.95,090716,,,D*70
$GPRMC,183140.00,A,1159.97706,N,06145.86178,W,0.202,,090716,,,D*64
!AIVDO,1,1,,,B3KMVtP00fqD?S1eo1eKswl5oP06,0*1F
!AIVDM,1,1,,B,14R6Mr001:KTn6p6lfmVwUa>0HGs,0*71
$GPRMC,183141.00,A,1159.97723,N,06145.86170,W,0.885,67.29,090716,,,D*4B
$GPRMC,183142.00,A,1159.97733,N,06145.86164,W,0.231,66.16,090716,,,D*44
!AIVDO,1,1,,,B3KMVtP00fqD?T1eo1laKwm5oP06,0*02
!AIVDM,1,1,,B,B8uEEL001>qDv31f@1AiCwm5oP06,0*42
$GPRMC,183143.00,A,1159.97725,N,06145.86164,W,0.438,158.67,090716,,,D*77
$GPRMC,183144.00,A,1159.97724,N,06145.86162,W,0.145,,090716,,,D*6B
!AIVDO,1,1,,,B3KMVtP00NqD?T1eo1iS?wn5oP06,0*6A
!AIVDM,1,1,,B,14R6Mr001:KTn6p6lfPo2EWF00T2,0*44
$GPRMC,183145.00,A,1159.97736,N,06145.86154,W,0.671,80.28,090716,,,D*40
$GPRMC,183146.00,A,1159.97744,N,06145.86149,W,0.137,,090716,,,D*63
!AIVDO,1,1,,,B3KMVtP00NqD?TQeo1pj?wo5oP06,0*2B
!AIVDM,1,1,,B,B4eHoR000NqDCVQenrqpowo5oP06,0*4F
$GPRMC,183147.00,A,1159.97740,N,06145.86148,W,0.328,104.23,090716,,,D*71
$GPRMC,183148.00,A,1159.97736,N,06145.86148,W,0.063,,090716,,,D*69
!AIVDM,1,1,,A,B5NLjP000NqDK`1ejr9MWwp5oP06,0*6D
!AIVDO,1,1,,,B3KMVtP00NqD?TQeo1q1;wp5oP06,0*6A
!AIVDM,1,1,,B,H5NIEf1<tlELPE8D00000000000,2*3B
$GPRMC,183149.00,A,1159.97744,N,06145.86143,W,0.480,62.79,090716,,,D*4B
$GPRMC,183150.00,A,1159.97751,N,06145.86139,W,0.192,,090716,,,D*68
!AIVDO,1,1,,,B3KMVtP00fqD?U1eo1tWCwq5oP06,0*39
!AIVDM,1,1,,A,14R6Mr0019KTn6j6lf2W0UWR0<0H,0*10
$GPRMC,183151.00,A,1159.97749,N,06145.86139,W,0.192,,090716,,,D*60
$GPRMC,183152.00,A,1159.97746,N,06145.86137,W,0.162,,090716,,,D*6D
!AIVDM,1,1,,A,1000000P01KUBRl6qR>4lOwVp0Rn,0*45
!AIVDO,1,1,,,B3KMVtP00fqD?U1eo1tWCwr5oP06,0*3A
$GPRMC,183153.00,A,1159.97746,N,06145.86135,W,0.081,,090716,,,D*62
!AIVDM,1,1,,A,B52LNjP0ANqBe11f:Hv;owrUoP06,0*6D
$GPRMC,183154.00,A,1159.97754,N,06145.86133,W,0.307,50.47,090716,,,D*45
!AIVDO,1,1,,,B3KMVtP00vqD?UQeo1tOWws5oP06,0*47
$GPRMC,183155.00,A,1159.97757,N,06145.86127,W,0.226,75.44,090716,,,D*44
$GPRMC,183156.00,A,1159.97748,N,06145.86133,W,0.551,193.73,090716,,,D*76
!AIVDO,1,1,,,B3KMVtP01fqD?UQeo1uq7wt5oP06,0*0E
$GPRMC,183157.00,A,1159.97746,N,06145.86136,W,0.075,,090716,,,D*6E
$GPRMC,183158.00,A,1159.97756,N,06145.86127,W,0.574,117.89,090716,,,D*7C
!AIVDO,1,1,,,B3KMVtP01fqD?UQeo219gwu5oP06,0*50
!AIVDM,1,1,,B,H5NIEf4TCBD5l?;G45qkqp201410,0*5F
$GPRMC,183159.00,A,1159.97757,N,06145.86128,W,0.299,146.61,090716,,,D*75
$GPRMC,183200.00,A,1159.97747,N,06145.86137,W,0.631,207.33,090716,,,D*72
!AIVDM,1,1,,B,14R6Mr0019KTn6l6le?725Wn00S7,0*35
!AIVDO,1,1,,,B3KMVtP01fqD?U1eo1v1WwP5oP06,0*69
$GPRMC,183201.00,A,1159.97745,N,06145.86142,W,0.062,,090716,,,D*68
!AIVDM,1,1,,B,B3P<WHh00fqF=V1erV3FcwPUoP06,0*58
$GPRMC,183202.00,A,1159.97753,N,06145.86136,W,0.439,148.64,090716,,,D*74
!AIVDM,1,1,,B,1000000P01KUBRl6qR=nk?v0pD0S,0*24
!AIVDO,1,1,,,B3KMVtP01>qD?U1eo1uLswQ5oP06,0*6A
$GPRMC,183203.00,A,1159.97752,N,06145.86138,W,0.321,173.92,090716,,,D*75
$GPRMC,183204.00,A,1159.97739,N,06145.86149,W,0.737,218.43,090716,,,D*78
!AIVDO,1,1,,,B3KMVtP01vqD?TQeo1r8SwR5oP06,0*13
$GPRMC,183205.00,A,1159.97731,N,06145.86154,W,0.229,213.77,090716,,,D*7B
!AIVDM,1,1,,B,B3P>A@@0<vqCr11f:GVBSwRUoP06,0*54
$GPRMC,183206.00,A,1159.97732,N,06145.86153,W,0.130,,090716,,,D*69
!AIVDM,1,1,,B,H5NORL0pDdt0000000000000000,2*51
!AIVDO,1,1,,,B3KMVtP00NqD?TQeo1n5cwS5oP06,0*0A
$GPRMC,183207.00,A,1159.97729,N,06145.86154,W,0.225,205.20,090716,,,D*79
$GPRMC,183208.00,A,1159.97716,N,06145.86162,W,0.749,214.25,090716,,,D*75
!AIVDO,1,1,,,B3KMVtP01vqD?T1eo1j5wwT5oP06,0*44
$GPRMC,183209.00,A,1159.97702,N,06145.86174,W,0.585,218.73,090716,,,D*7B
$GPRMC,183210.00,A,1159.97701,N,06145.86178,W,0.025,,090716,,,D*62
!AIVDO,1,1,,,B3KMVtP00>qD?S1eo1b8gwU5oP06,0*1E
$GPRMC,183211.00,A,1159.97702,N,06145.86176,W,0.038,,090716,,,D*62
!AIVDO,1,1,,B,B3KMVtP00>qD?S1eo1b8gwUUoP06,0*3C
$GPRMC,183212.00,A,1159.97689,N,06145.86186,W,0.813,223.97,090716,,,D*7E
!AIVDO,1,1,,,B3KMVtP02>qD?RQeo1V<3wV5oP06,0*1A
$GPRMC,183213.00,A,1159.97674,N,06145.86198,W,0.644,222.27,090716,,,D*74
$GPRMC,183214.00,A,1159.97667,N,06145.86202,W,0.054,,090716,,,D*6F
!AIVDM,1,1,,A,14R6Mr0019KTn726ld770UVJ00Sj,0*7A
!AIVDO,1,1,,,B3KMVtP00NqD?R1eo1N:wwW5oP06,0*53
$GPRMC,183215.00,A,1159.97670,N,06145.86201,W,0.128,,090716,,,D*61
!AIVDM,1,1,,A,B3HhF0000>qEkT1eoM6pwwWUoP06,0*0F
$GPRMC,183216.00,A,1159.97659,N,06145.86208,W,0.655,219.40,090716,,,D*7D
!AIVDM,1,1,,B,H5NORL4TCBD5M32G47jnqp1p0520,0*1C
!AIVDO,1,1,,,B3KMVtP01vqD?QQeo1J9;w`5oP06,0*75
$GPRMC,183217.00,A,1159.97642,N,06145.86223,W,0.878,222.54,090716,,,D*73
$GPRMC,183218.00,A,1159.97638,N,06145.86228,W,0.021,,090716,,,D*63
!AIVDM,1,1,,A,H5NLjP1@PF0PU10t<4m1E<00000,2*5B
!AIVDO,1,1,,,B3KMVtP00>qD?PQeo1B;7wa5oP06,0*3A
$GPRMC,183219.00,A,1159.97641,N,06145.86228,W,0.126,,090716,,,D*6A
$GPRMC,183220.00,A,1159.97631,N,06145.86238,W,0.748,223.38,090716,,,D*7E
!AIVDO,1,1,,,B3KMVtP01vqD?P1eo1>;cwb5oP06,0*38
$GPRMC,183221.00,A,1159.97615,N,06145.86248,W,0.654,214.36,090716,,,D*78
!AIVDM,1,1,,B,B52LNjP0AfqBb3Qf9wf9CwbUoP06,0*31
$GPRMC,183222.00,A,1159.97609,N,06145.86256,W,0.274,219.01,090716,,,D*76
!AIVDO,1,1,,,B3KMVtP00vqD?O1eo168swc5oP06,0*3C
$GPRMC,183223.00,A,1159.97611,N,06145.86257,W,0.133,,090716,,,D*6A
!AIVDM,1,1,,A,B5NIEf000fqDG:1ek3vFOwcUoP06,0*60
!AIVDM,1,1,,A,H:U721@lo;33000000000000000,2*7F
$GPRMC,183224.00,A,1159.97601,N,06145.86263,W,0.686,213.89,090716,,,D*7D
!AIVDO,1,1,,,B3KMVtP01vqD?O1eo125gwd5oP06,0*27
$GPRMC,183225.00,A,1159.97582,N,06145.86276,W,0.864,212.11,090716,,,D*72
!AIVDM,1,1,,B,34R6Mr0Oi9KTn7<6lc9W05Vj00sA,0*70
$GPRMC,183226.00,A,1159.97575,N,06145.86279,W,0.142,,090716,,,D*64
!AIVDM,1,1,,A,H4eHg3i05=<Ttr18D8DhhD00000,2*5B
!AIVDO,1,1,,,B3KMVtP00NqD?N1eo0r4Wwe5oP06,0*6E
$GPRMC,183227.00,A,1159.97576,N,06145.86278,W,0.092,,090716,,,D*6B
!AIVDM,1,1,,A,B3P=@6000fqDK4QelJCGwweUoP06,0*4F
$GPRMC,183228.00,A,1159.97564,N,06145.86284,W,0.704,209.93,090716,,,D*73
!AIVDM,1,1,,A,H5NLjP4TCBD5au:G46nklm187320,0*13
!AIVDM,1,1,,B,H3P>2eh84l584p@T00000000000,2*00
!AIVDO,1,1,,,B3KMVtP01vqD?N1eo0j3?wf5oP06,0*23
$GPRMC,183229.00,A,1159.97541,N,06145.86290,W,0.916,196.77,090716,,,D*72
!AIVDM,1,1,,B,H3P>2elT71B=9>0j9=Hq000P@460,0*54
!AIVDM,1,1,,B,H5NR:GP<51@UH40000000000000,2*0A
!AIVDM,1,1,,B,H3aKViTT0000000@5kkhp0107310,0*22
!AIVDM,1,1,,A,34R6Mr0Oi9KTn7:6lbr71EVp012Q,0*64
$GPRMC,183230.00,A,1159.97533,N,06145.86293,W,0.094,,090716,,,D*6F
!AIVDM,1,1,,A,1000000P01KUBRl6qR<o6?vrp8B3,0*56
$GPRMC,183231.00,A,1159.97531,N,06145.86292,W,0.149,,090716,,,D*6C
!AIVDO,1,1,,,B3KMVtP00NqD?MQeo0Us3wgUoP06,0*6B
$GPRMC,183232.00,A,1159.97521,N,06145.86297,W,0.572,200.34,090716,,,D*7C
!AIVDM,1,1,,B,34R6Mr0Oi9KTn7D6lbbW15Vv012P,0*1E
$GPRMC,183233.00,A,1159.97504,N,06145.86299,W,0.611,186.41,090716,,,D*7D
!AIVDO,1,1,,,B3KMVtP01fqD?M1eo0IlSwhUoP06,0*4E
!AIVDM,1,1,,A,H:U721DTC=D7<1h@Clkqq01P1210,0*1A
$GPRMC,183234.00,A,1159.97494,N,06145.86303,W,0.298,191.06,090716,,,D*70
$GPRMC,183235.00,A,1159.97493,N,06145.86303,W,0.163,,090716,,,D*60
!AIVDO,1,1,,,B3KMVtP00fqD?M1eo0EoOwiUoP06,0*5D
!AIVDM,1,1,,A,B3P>A@@0=NqCoE1f:6J?;wiUoP06,0*44
!AIVDM,1,1,,A,34R6Mr0Oi9KTn7>6lbKG0EW400qi,0*17
$GPRMC,183236.00,A,1159.97484,N,06145.86304,W,0.444,192.15,090716,,,D*72
$GPRMC,183237.00,A,1159.97466,N,06145.86305,W,0.737,181.73,090716,,,D*7B
!AIVDO,1,1,,,B3KMVtP01vqD?LQeo0=iWwjUoP06,0*48
!AIVDM,1,1,,A,34R6Mr0Oi9KTn7:6lbF70EW600w0,0*33
$GPRMC,183238.00,A,1159.97456,N,06145.86305,W,0.167,,090716,,,D*66
!AIVDM,1,1,,A,H4eHg3lTC=D6n;e36;mklh1P0040,0*7E
$GPRMC,183239.00,A,1159.97453,N,06145.86302,W,0.087,,090716,,,D*6A
!AIVDO,1,1,,,B3KMVtP00NqD?M1eo05iWwkUoP06,0*19
!AIVDM,1,1,,B,34R6Mr0Oi9KTn7:6lb;W1UW:0000,0*77
!AIVDM,1,1,,A,B3uHBMP00NqDV<Qeo<fmwwkUoP06,0*4F
!AIVDM,1,1,,B,H5NR:GTTCBD70fjG47nplo2P:880,0*46
$GPRMC,183240.00,A,1159.97448,N,06145.86300,W,0.215,180.49,090716,,,D*7F
!AIVDM,1,1,,B,34R6Mr0Oi9KTn7F6lb1G1UW>00vA,0*22
$GPRMC,183241.00,A,1159.97434,N,06145.86297,W,0.508,170.76,090716,,,D*72
!AIVDO,1,1,,,B3KMVtP01NqD?M1enwubkwlUoP06,0*2E
!AIVDM,1,1,,A,34R6Mr0Oi9KTn7H6lat705W@010h,0*68
$GPRMC,183242.00,A,1159.97423,N,06145.86296,W,0.284,171.34,090716,,,D*72
!AIVDM,1,1,,A,34R6Mr0Oi9KTn7F6lao6wmWB00vP,0*1E
$GPRMC,183243.00,A,1159.97426,N,06145.86293,W,0.369,82.95,090716,,,D*47
!AIVDO,1,1,,,B3KMVtP01>qD?MQenwtkswmUoP06,0*2F
$GPRMC,183244.00,A,1159.97423,N,06145.86292,W,0.251,118.68,090716,,,D*7E
$GPRMC,183245.00,A,1159.97414,N,06145.86288,W,0.331,140.52,090716,,,D*73
!AIVDO,1,1,,,B3KMVtP00vqD?MQenwmGownUoP06,0*4C
$GPRMC,183246.00,A,1159.97407,N,06145.86284,W,0.243,140.70,090716,,,D*7A
!AIVDM,1,1,,B,34R6Mr0Oi9KTn7B6laRG1UWJ00oA,0*2B
!AIVDM,1,1,,A,B:U721@00NqDNEQelqNw;wo5oP06,0*30
$GPRMC,183247.00,A,1159.97410,N,06145.86284,W,0.244,63.42,090716,,,D*4B
!AIVDO,1,1,,,B3KMVtP00fqD?N1enwlWcwoUoP06,0*23
!AIVDM,1,1,,B,34R6Mr0Oi9KTn7F6laMG0mWL00uh,0*3C
$GPRMC,183248.00,A,1159.97419,N,06145.86279,W,0.411,44.06,090716,,,D*4C
!AIVDM,1,1,,A,34R6Mr0Oi9KTn7F6laHG0UWN0000,0*1D
$GPRMC,183249.00,A,1159.97408,N,06145.86273,W,0.576,144.76,090716,,,D*71
!AIVDM,1,1,,B,B5NORL000>qE9Q1eqJVkswpUoP06,0*55
!AIVDM,1,1,,A,34R6Mr0Oi9KTn7F6laHG0UWN0000,0*1D
!AIVDO,1,1,,,B3KMVtP01fqD?NQenwmJSwpUoP06,0*71
$GPRMC,183250.00,A,1159.97397,N,06145.86268,W,0.406,146.08,090716,,,D*7F
!AIVDM,1,1,,A,34R6Mr0Oi9KTn7H6la970UWT00ri,0*13
$GPRMC,183251.00,A,1159.97411,N,06145.86264,W,0.919,35.85,090716,,,D*48
!AIVDO,1,1,,,B3KMVtP02NqD?O1enwlFOwqUoP06,0*2B
!AIVDM,1,1,,A,1000000P00KUBRj6qR<I`?wTpHNN,0*07
$GPRMC,183252.00,A,1159.97419,N,06145.86260,W,0.080,,090716,,,D*6B
!AIVDM,1,1,,B,34R6Mr0Oi9KTn7J6la3o0UWV012h,0*02
$GPRMC,183253.00,A,1159.97406,N,06145.86254,W,0.656,92.85,090716,,,D*46
!AIVDM,1,1,,A,B52LNjP0ANqBVvQf9Qj8SwrUoP06,0*40
!AIVDO,1,1,,,B3KMVtP01vqD?OQenwlr7wrUoP06,0*3F
!AIVDM,1,1,,B,34R6Mr0019KTn7L6l`qG0UWb0000,0*27
$GPRMC,183254.00,A,1159.97397,N,06145.86249,W,0.216,98.92,090716,,,D*4E
$GPRMC,183255.00,A,1159.97414,N,06145.86248,W,0.901,8.72,090716,,,D*78
!AIVDO,1,1,,,B3KMVtP02NqD?OQenwl5OwsUoP06,0*3A
$GPRMC,183256.00,A,1159.97421,N,06145.86243,W,0.192,,090716,,,D*67
$GPRMC,183257.00,A,1159.97407,N,06145.86238,W,0.635,58.07,090716,,,D*40
!AIVDM,1,1,,A,34R6Mr0019KTn7T6l`bG0mWh0110,0*1D
!AIVDO,1,1,,,B3KMVtP01fqD?P1enwlTGwtUoP06,0*00
$GPRMC,183258.00,A,1159.97399,N,06145.86233,W,0.271,70.21,090716,,,D*4E
$GPRMC,183259.00,A,1159.97416,N,06145.86228,W,0.922,15.45,090716,,,D*49
!AIVDM,1,1,,B,34R6Mr0019KTn7V6l`JW0UWn0000,0*1A
!AIVDO,1,1,,,B3KMVtP02NqD?PQenwp9gwuUoP06,0*1B
$GPRMC,183300.00,A,1159.97426,N,06145.86225,W,0.156,,090716,,,D*6A
!AIVDM,1,1,,B,14R6Mr0019KTn7V6l`JW0UWn0<0C,0*67
$GPRMC,183301.00,A,1159.97416,N,06145.86222,W,0.524,63.28,090716,,,D*4F
!AIVDO,1,1,,A,H3KMVtPTU8U<000000000000000,2*49
!AIVDO,1,1,,,B3KMVtP01NqD?Q1enwpWWwPUoP06,0*02
$GPRMC,183302.00,A,1159.97412,N,06145.86218,W,0.124,,090716,,,D*64
!AIVDM,1,1,,B,1000000P01KUBRj6qR<6Sgv0p@1B,0*0F
$GPRMC,183303.00,A,1159.97420,N,06145.86214,W,0.491,44.59,090716,,,D*41
!AIVDO,1,1,,,B3KMVtP01NqD?QQenwpKswQUoP06,0*5B
!AIVDM,1,1,,A,34R6Mr0019KTn7b6l`6G1EV60000,0*09
$GPRMC,183304.00,A,1159.97431,N,06145.86213,W,0.333,28.76,090716,,,D*49
!AIVDM,1,1,,B,B3P>A@@0A>qClB1f9iJ?kwR5oP06,0*18
!AIVDM,1,1,,A,H52LNjPp4u>3C30000000000000,2*2F
!AIVDM,1,1,,A,B5WidR000NqDdg1f?m<CSwR5oP06,0*11
$GPRMC,183305.00,A,1159.97426,N,06145.86210,W,0.389,105.96,090716,,,D*7C
!AIVDO,1,1,,,B3KMVtP01>qD?QQenwu2CwRUoP06,0*64
$GPRMC,183306.00,A,1159.97415,N,06145.86206,W,0.302,124.59,090716,,,D*7B
$GPRMC,183307.00,A,1159.97418,N,06145.86202,W,0.297,83.53,090716,,,D*48
!AIVDM,1,1,,B,H3P>7r@PTLLTq<0000000000000,2*1A
!AIVDO,1,1,,,B3KMVtP00vqD?R1enwpl?wSUoP06,0*68
$GPRMC,183308.00,A,1159.97435,N,06145.86199,W,0.703,21.40,090716,,,D*4B
$GPRMC,183309.00,A,1159.97435,N,06145.86196,W,0.211,38.43,090716,,,D*48
!AIVDM,1,1,,A,B3aQdch00NqDu41f@:rskwTUoP06,0*3A
!AIVDO,1,1,,,B3KMVtP00fqD?R1eo00H3wTUoP06,0*51
$GPRMC,183310.00,A,1159.97421,N,06145.86192,W,0.605,150.68,090716,,,D*76
$GPRMC,183311.00,A,1159.97426,N,06145.86190,W,0.476,104.73,090716,,,D*7F
!AIVDO,1,1,,,B3KMVtP01NqD?RQenwu1OwUUoP06,0*1F
$GPRMC,183312.00,A,1159.97442,N,06145.86185,W,0.732,43.03,090716,,,D*4C
!AIVDO,1,1,,A,H3KMVtTT>F348TB?:kjki01P0400,0*79
$GPRMC,183313.00,A,1159.97440,N,06145.86182,W,0.323,71.21,090716,,,D*4D
!AIVDO,1,1,,,B3KMVtP00vqD?S1eo00dSwVUoP06,0*0E
$GPRMC,183314.00,A,1159.97424,N,06145.86182,W,0.634,153.59,090716,,,D*75
!AIVDM,1,1,,B,B7PDOJ0006qE8B1eqpL03wW5oP06,0*3F
$GPRMC,183315.00,A,1159.97428,N,06145.86179,W,0.477,103.79,090716,,,D*7E
!AIVDO,1,1,,,B3KMVtP01NqD?S1enwu0swWUoP06,0*41
!AIVDM,1,1,,A,14R6Mr0019KTn7T6lW=o1E`L0<0E,0*1C
$GPRMC,183316.00,A,1159.97439,N,06145.86178,W,0.474,32.76,090716,,,D*43
!AIVDM,1,1,,B,H3P<WHhl4qE8EH4000000000000,2*2A
$GPRMC,183317.00,A,1159.97434,N,06145.86176,W,0.447,89.84,090716,,,D*4C
!AIVDO,1,1,,,B3KMVtP01>qD?S1enwtp;w`UoP06,0*0F
$GPRMC,183318.00,A,1159.97422,N,06145.86174,W,0.287,112.01,090716,,,D*72
$GPRMC,183319.00,A,1159.97424,N,06145.86173,W,0.245,68.31,090716,,,D*43
!AIVDO,1,1,,,B3KMVtP00fqD?SQenwpbgwaUoP06,0*7D
$GPRMC,183320.00,A,1159.97436,N,06145.86174,W,0.531,358.33,090716,,,D*7B
$GPRMC,183321.00,A,1159.97434,N,06145.86175,W,0.259,326.59,090716,,,D*75
!AIVDO,1,1,,,B3KMVtP00vqD?S1enww<;wbUoP06,0*0B
$GPRMC,183322.00,A,1159.97419,N,06145.86173,W,0.592,206.23,090716,,,D*71
$GPRMC,183323.00,A,1159.97418,N,06145.86174,W,0.255,233.76,090716,,,D*7C
!AIVDM,1,1,,B,3:5dBd1P00KUDwt6q@hJAgvh0Dpb,0*18
!AIVDM,1,1,,A,14h?K60P01sUEm66q5ebCwvh2@=l,0*2C
!AIVDO,1,1,,,B3KMVtP00vqD?SQenwrB;wcUoP06,0*11
$GPRMC,183324.00,A,1159.97425,N,06145.86174,W,0.278,294.52,090716,,,D*71
$GPRMC,183325.00,A,1159.97425,N,06145.86175,W,0.127,,090716,,,D*6E
!AIVDO,1,1,,,B3KMVtP00NqD?S1enwvp7wdUoP06,0*74
!AIVDM,1,1,,B,14R6Mr0019KTn7V6lVEG2U`j0<0G,0*7B
$GPRMC,183326.00,A,1159.97416,N,06145.86176,W,0.289,241.13,090716,,,D*72
$GPRMC,183327.00,A,1159.97412,N,06145.86173,W,0.103,,090716,,,D*68
!AIVDO,1,1,,,B3KMVtP00NqD?SQenwnFgweUoP06,0*6B
!AIVDM,1,1,,B,H3P<WHlTCBD6@iWj5C5k000p5160,0*18
$GPRMC,183328.00,A,1159.97422,N,06145.86176,W,0.505,327.02,090716,,,D*79
$GPRMC,183329.00,A,1159.97425,N,06145.86178,W,0.061,,090716,,,D*6C
!AIVDM,1,1,,B,H5NNc310DL5=E<0000000000000,2*42
!AIVDM,1,1,,B,H5NNc34U71B=9>000000000P<230,0*7A
!AIVDO,1,1,,,B3KMVtP00NqD?S1enww<KwfUoP06,0*47
!AIVDM,1,1,,A,14R6Mr0019KTn7T6lV0W1U`r00Rs,0*5E
$GPRMC,183330.00,A,1159.97416,N,06145.86176,W,0.471,260.77,090716,,,D*75
!AIVDM,1,1,,A,1000000P02KUBRj6qR;6u?vrp6B4,0*47
$GPRMC,183331.00,A,1159.97413,N,06145.86177,W,0.112,,090716,,,D*6A
!AIVDO,1,1,,,B3KMVtP00NqD?S1enwnS3wgUoP06,0*48
$GPRMC,183332.00,A,1159.97428,N,06145.86181,W,0.694,317.48,090716,,,D*76
$GPRMC,183333.00,A,1159.97429,N,06145.86182,W,0.215,306.10,090716,,,D*75
!AIVDM,1,1,,B,14h?K60P01sUElr6q5eJ;ww428CP,0*5D
!AIVDM,1,1,,B,B5NR:GP00>qE911eqW3CCwhUoP06,0*53
!AIVDO,1,1,,,B3KMVtP00fqD?S1enwvwGwhUoP06,0*27
$GPRMC,183334.00,A,1159.97421,N,06145.86180,W,0.409,197.45,090716,,,D*79
$GPRMC,183335.00,A,1159.97424,N,06145.86182,W,0.372,257.45,090716,,,D*7B
!AIVDM,1,1,,A,14R6Mr0019KTn7P6lUd72ma208Dh,0*12
!AIVDM,1,1,,A,14R6Mr0019KTn7V6lUQo2ma608E5,0*21
!AIVDO,1,1,,,B3KMVtP01>qD?S1enwrPwwiUoP06,0*6C
$GPRMC,183336.00,A,1159.97436,N,06145.86187,W,0.498,315.51,090716,,,D*7F
$GPRMC,183337.00,A,1159.97441,N,06145.86190,W,0.135,,090716,,,D*67
!AIVDO,1,1,,,B3KMVtP00NqD?RQeo035?wjUoP06,0*55
$GPRMC,183338.00,A,1159.97432,N,06145.86189,W,0.389,275.87,090716,,,D*70
$GPRMC,183339.00,A,1159.97441,N,06145.86190,W,0.498,327.05,090716,,,D*76
!AIVDM,1,1,,B,B5NIaO0006qD8P1esDU;kwkUkP06,0*32
!AIVDO,1,1,,,B3KMVtP01NqD?RQeo03<OwkUoP06,0*2C
$GPRMC,183340.00,A,1159.97460,N,06145.86196,W,0.867,333.64,090716,,,D*73
!AIVDM,1,1,,B,14R6Mr0019KTn7N6lU=72Ua>0@Gs,0*02
$GPRMC,183341.00,A,1159.97458,N,06145.86194,W,0.452,20.42,090716,,,D*44
!AIVDO,1,1,,,B3KMVtP01NqD?RQeo08<kwlUoP06,0*04
$GPRMC,183342.00,A,1159.97455,N,06145.86193,W,0.067,,090716,,,D*65
!AIVDM,1,1,,B,H52Hid@ptl4@000000000000000,2*41
$GPRMC,183343.00,A,1159.97469,N,06145.86196,W,0.673,358.22,090716,,,D*7D
!AIVDO,1,1,,,B3KMVtP01vqD?R1eo0?OswmUoP06,0*31
$GPRMC,183344.00,A,1159.97487,N,06145.86199,W,0.650,355.11,090716,,,D*79
$GPRMC,183345.00,A,1159.97485,N,06145.86198,W,0.344,25.84,090716,,,D*43
!AIVDM,1,1,,B,H3P=@608584tp@4000000000000,2*06
!AIVDO,1,1,,,B3KMVtP00vqD?R1eo0D@;wnUoP06,0*0F
$GPRMC,183346.00,A,1159.97483,N,06145.86199,W,0.082,,090716,,,D*6B
!AIVDM,1,1,,B,14R6Mr0019KTn7P6lTfW2UWJ0HK8,0*2B
$GPRMC,183347.00,A,1159.97498,N,06145.86201,W,0.699,3.99,090716,,,D*73
$GPRMC,183348.00,A,1159.97519,N,06145.86203,W,0.837,356.49,090716,,,D*72
!AIVDO,1,1,,,B3KMVtP02>qD?R1eo0SNowp5oP06,0*76
$GPRMC,183349.00,A,1159.97516,N,06145.86202,W,0.552,38.24,090716,,,D*43
$GPRMC,183350.00,A,1159.97513,N,06145.86199,W,0.103,,090716,,,D*6C
!AIVDO,1,1,,,B3KMVtP00NqD?R1eo0LGswq5oP06,0*0F
!AIVDM,1,1,,A,14R6Mr0019KTn7N6lTIo2EWR06B4,0*52
$GPRMC,183351.00,A,1159.97531,N,06145.86201,W,0.854,7.81,090716,,,D*74
!AIVDM,1,1,,A,B52LNjP0B>qBQ8Qf8cr;;wqUoP06,0*39
!AIVDM,1,1,,A,1000000P01KUBRh6qR:WV?wTpD0M,0*5B
$GPRMC,183352.00,A,1159.97552,N,06145.86201,W,0.704,7.30,090716,,,D*72
!AIVDO,1,1,,,B3KMVtP01vqD?R1eo0d4Wwr5oP06,0*4A
!AIVDM,1,1,,A,B3aDBAP00VqDm0Qf>g`:7wqUoP06,0*76
!AIVDM,1,1,,B,H52HidDTC=D5l=@G41piqk1@9140,0*1D
!AIVDM,1,1,,B,B7`BAM0006qE8IQequnngwr5kP06,0*67
$GPRMC,183353.00,A,1159.97550,N,06145.86198,W,0.353,44.68,090716,,,D*4E
$GPRMC,183354.00,A,1159.97543,N,06145.86199,W,0.136,,090716,,,D*6B
!AIVDO,1,1,,,B3KMVtP00NqD?R1eo0`Kwws5oP06,0*29
!AIVDM,1,1,,A,B3aKViP00FqDIfQeoPENgws5kP06,0*25
$GPRMC,183355.00,A,1159.97557,N,06145.86198,W,0.717,19.80,090716,,,D*45
!AIVDM,1,1,,B,H3P=@64T47I7@Eqj7;8n000h9230,0*4C
$GPRMC,183356.00,A,1159.97582,N,06145.86196,W,0.957,10.01,090716,,,D*4A
!AIVDO,1,1,,,B3KMVtP02fqD?R1eo0p6Cwt5oP06,0*5D
!AIVDM,1,1,,B,B3uFV1P006qDTvQenu1=swt5oP06,0*2E
$GPRMC,183357.00,A,1159.97578,N,06145.86196,W,0.556,51.64,090716,,,D*45
$GPRMC,183358.00,A,1159.97567,N,06145.86195,W,0.262,72.66,090716,,,D*44
!AIVDO,1,1,,,B3KMVtP00vqD?R1eo0leOwu5oP06,0*0D
!AIVDM,1,1,,B,B3P>2eh00nqDdI1f=nfVCwu5kP06,0*0E
$GPRMC,183359.00,A,1159.97581,N,06145.86192,W,0.777,21.02,090716,,,D*4F
$GPRMC,183400.00,A,1159.97605,N,06145.86188,W,0.895,15.66,090716,,,D*46
!AIVDO,1,1,,,B3KMVtP02NqD?RQeo149owP5oP06,0*57
!AIVDM,1,1,,B,14R6Mr0019KTn7H6lSVG25Wn080?,0*5C
$GPRMC,183401.00,A,1159.97605,N,06145.86186,W,0.291,31.41,090716,,,D*44
$GPRMC,183402.00,A,1159.97594,N,06145.86187,W,0.358,108.28,090716,,,D*7D
!AIVDM,1,1,,B,1000000P01KUBRh6qR:K6?v0p<0P,0*24
!AIVDO,1,1,,,B3KMVtP01>qD?RQeo0u3gwQ5oP06,0*67
!AIVDM,1,1,,B,H40rd20p5H4h58U>22222222220,2*78
$GPRMC,183403.00,A,1159.97604,N,06145.86183,W,0.664,40.40,090716,,,D*4B
!AIVDM,2,1,0,A,54R6Mr02<EoAK917B20=TLqE>22222222222221690?675m70:43jCU83i`3,0*2C
!AIVDM,2,2,0,A,2DhDp888880,2*36
!AIVDM,2,1,1,B,54R6Mr02<EoAK917B20=TLqE>22222222222221690?675m70:43jCU83i`3,0*2E
!AIVDM,2,2,1,B,2DhDp888880,2*34
$GPRMC,183404.00,A,1159.97625,N,06145.86175,W,0.839,26.20,090716,,,D*46
!AIVDM,1,1,,A,B52Hid@00vqEF:1eqA=?;wR5oP06,0*2C
!AIVDO,1,1,,,B3KMVtP02>qD?S1eo1<@KwR5oP06,0*11
$GPRMC,183405.00,A,1159.97627,N,06145.86172,W,0.223,38.05,090716,,,D*4B
!AIVDM,1,1,,B,B3P>A@@0ANqCeQ1f8uj<GwRUoP06,0*00
$GPRMC,183406.00,A,1159.97615,N,06145.86173,W,0.513,148.52,090716,,,D*78
!AIVDO,1,1,,,B3KMVtP01NqD?SQeo19LowS5oP06,0*2E
$GPRMC,183407.00,A,1159.97620,N,06145.86169,W,0.453,100.16,090716,,,D*7D
$GPRMC,183408.00,A,1159.97638,N,06145.86162,W,0.778,37.63,090716,,,D*4D
!AIVDO,1,1,,,B3KMVtP02>qD?T1eo1@GSwT5oP06,0*73
$GPRMC,183409.00,A,1159.97642,N,06145.86159,W,0.144,,090716,,,D*6F
$GPRMC,183410.00,A,1159.97631,N,06145.86159,W,0.478,67.64,090716,,,D*44
!AIVDO,1,1,,,B3KMVtP01NqD?T1eo1<bCwU5oP06,0*48
!AIVDM,1,1,,A,B4eHg3h00fqEAl1eop5BCwU5oP06,0*6F
$GPRMC,183411.00,A,1159.97635,N,06145.86157,W,0.374,52.04,090716,,,D*44
$GPRMC,183412.00,A,1159.97651,N,06145.86148,W,0.699,37.97,090716,,,D*44
!AIVDO,1,1,,,B3KMVtP01vqD?TQeo1DGkwV5oP06,0*66
!AIVDM,1,1,,B,14h?K60P?w<tSF0l4Q@>4?wv0D05,0*43
$GPRMC,183413.00,A,1159.97655,N,06145.86146,W,0.062,,090716,,,D*69
$GPRMC,183414.00,A,1159.97645,N,06145.86146,W,0.511,86.42,090716,,,D*48
!AIVDO,1,1,,,B3KMVtP01NqD?TQeo1Dn3wW5oP06,0*2E
$GPRMC,183415.00,A,1159.97647,N,06145.86143,W,0.308,74.59,090716,,,D*47
!AIVDM,1,1,,A,34R6Mr0Oi9KTn7H6lRE71mVN00w1,0*23
$GPRMC,183416.00,A,1159.97663,N,06145.86136,W,0.738,31.66,090716,,,D*4A
!AIVDO,1,1,,,B3KMVtP01vqD?U1eo1HCow`5oP06,0*3D
$GPRMC,183417.00,A,1159.97664,N,06145.86133,W,0.220,46.84,090716,,,D*49
$GPRMC,183418.00,A,1159.97653,N,06145.86134,W,0.490,149.83,090716,,,D*71
!AIVDO,1,1,,,B3KMVtP01NqD?UQeo1EMcwa5oP06,0*6B
$GPRMC,183419.00,A,1159.97656,N,06145.86131,W,0.323,118.27,090716,,,D*75
$GPRMC,183420.00,A,1159.97674,N,06145.86122,W,0.865,37.57,090716,,,D*4F
!AIVDO,1,1,,,B3KMVtP02NqD?V1eo1LGSwb5oP06,0*3B
$GPRMC,183421.00,A,1159.97675,N,06145.86118,W,0.219,48.57,090716,,,D*4F
!AIVDM,1,1,,A,H4eHoR4TCBD5Une0000000000000,0*34
!AIVDM,1,1,,B,B52LNjP0B>qBN4Qf8@:83wbUoP06,0*5A
$GPRMC,183422.00,A,1159.97662,N,06145.86119,W,0.553,164.88,090716,,,D*7F
!AIVDM,1,1,,A,34R6Mr0Oi9KTn7N6lQnG2EVb00r@,0*0E
!AIVDO,1,1,,,B3KMVtP01fqD?V1eo1IW7wc5oP06,0*60
$GPRMC,183423.00,A,1159.97667,N,06145.86115,W,0.520,102.45,090716,,,D*72
$GPRMC,183424.00,A,1159.97683,N,06145.86109,W,0.639,52.97,090716,,,D*42
!AIVDO,1,1,,,B3KMVtP01fqD?VQeo1PQ;wd5oP06,0*14
$GPRMC,183425.00,A,1159.97679,N,06145.86105,W,0.430,97.29,090716,,,D*4D
!AIVDM,1,1,,B,34R6Mr0Oi9KTn7H6lQQo0mVj00ri,0*17
$GPRMC,183426.00,A,1159.97668,N,06145.86109,W,0.450,144.53,090716,,,D*76
!AIVDM,2,1,2,B,50000001ab7@0000000pu9@T>2222222222222006@>8368WN:0000000000,0*1E
!AIVDM,2,2,2,B,00000000008,2*2D
!AIVDO,1,1,,,B3KMVtP01NqD?VQeo1MJGwe5oP06,0*47
$GPRMC,183427.00,A,1159.97676,N,06145.86104,W,0.597,77.33,090716,,,D*48
$GPRMC,183428.00,A,1159.97688,N,06145.86099,W,0.440,56.18,090716,,,D*42
!AIVDO,1,1,,,B3KMVtP01>qD?W1eo1TS;wf5oP06,0*29
!AIVDM,1,1,,A,34R6Mr0Oi9KTn7F6lQGW25Vn0000,0*71
$GPRMC,183429.00,A,1159.97684,N,06145.86099,W,0.317,105.15,090716,,,D*70
!AIVDM,1,1,,A,34R6Mr0Oi9KTn7H6lQBG2UVp0181,0*1C
$GPRMC,183430.00,A,1159.97678,N,06145.86098,W,0.266,129.32,090716,,,D*76
!AIVDO,1,1,,,B3KMVtP00vqD?W1eo1Q@owg5oP06,0*23
!AIVDM,1,1,,A,1000000P01KUBRh6qR9KEwvrp0SB,0*20
$GPRMC,183431.00,A,1159.97683,N,06145.86096,W,0.356,64.10,090716,,,D*47
$GPRMC,183432.00,A,1159.97691,N,06145.86092,W,0.205,,090716,,,D*69
!AIVDM,1,1,,B,34R6Mr0Oi9KTn7P6lQ2o1EVv0130,0*40
!AIVDO,1,1,,,B3KMVtP00fqD?WQeo1T`7wh5oP06,0*21
$GPRMC,183433.00,A,1159.97689,N,06145.86091,W,0.150,,090716,,,D*61
!AIVDM,1,1,,B,14h?K60P00sUEl`6q5j9W?w426B8,0*71
$GPRMC,183434.00,A,1159.97688,N,06145.86093,W,0.064,,090716,,,D*63
!AIVDO,1,1,,,B3KMVtP00NqD?WQeo1T`7wi5oP06,0*08
$GPRMC,183435.00,A,1159.97693,N,06145.86092,W,0.273,53.13,090716,,,D*47
!AIVDM,1,1,,A,34R6Mr0Oi9KTn7N6lPkG0EW4014A,0*19
!AIVDM,1,1,,A,B3P>A@@0AvqCb7Qf8WBBowiUoP06,0*5D
!AIVDM,1,1,,A,34R6Mr0Oi9KTn7N6lPkG0EW400v1,0*2A
$GPRMC,183436.00,A,1159.97699,N,06145.86092,W,0.120,,090716,,,D*61
!AIVDM,1,1,,B,B5NVc`000NqF;AQes?G9cwj5oP06,0*0E
!AIVDO,1,1,,,B3KMVtP00NqD?WQeo1`Q?wj5oP06,0*06
$GPRMC,183437.00,A,1159.97700,N,06145.86092,W,0.092,,090716,,,D*69
!AIVDM,1,1,,A,34R6Mr0Oi9KTn7H6lPf70mW6010@,0*4D
$GPRMC,183438.00,A,1159.97701,N,06145.86093,W,0.053,,090716,,,D*6B
!AIVDO,1,1,,,B3KMVtP00NqD?WQeo1`Q?wk5oP06,0*07
$GPRMC,183439.00,A,1159.97701,N,06145.86093,W,0.085,,090716,,,D*61
!AIVDM,1,1,,B,34R6Mr0Oi9KTn7B6lPSW2UW:0000,0*56
!AIVDM,1,1,,B,H3HhF01@TdT0000000000000000,2*1F
$GPRMC,183440.00,A,1159.97707,N,06145.86093,W,0.241,26.26,090716,,,D*4D
!AIVDM,1,1,,B,34R6Mr0Oi9KTn7P6lPIW2UW>00wA,0*6C
!AIVDO,1,1,,,B3KMVtP00fqD?WQeo1d@Owl5oP06,0*4D
$GPRMC,183441.00,A,1159.97713,N,06145.86090,W,0.247,36.91,090716,,,D*41
!AIVDM,1,1,,B,H7PDOJ4T>1F93?000000001h0040,0*0A
$GPRMC,183442.00,A,1159.97706,N,06145.86095,W,0.502,273.07,090716,,,D*79
!AIVDM,1,1,,A,34R6Mr0019KTn7T6lP?6wmWB00t@,0*58
!AIVDM,1,1,,A,34R6Mr0019KTn7T6lP?6wmWB00t0,0*28
!AIVDO,1,1,,,B3KMVtP01NqD?W1eo1fbgwm5oP06,0*0D
$GPRMC,183443.00,A,1159.97707,N,06145.86093,W,0.246,,090716,,,D*67
$GPRMC,183444.00,A,1159.97718,N,06145.86088,W,0.548,341.19,090716,,,D*7D
!AIVDM,1,1,,A,34R6Mr0019KTn7P6lP5G05WF0000,0*08
!AIVDM,1,1,,A,B8uEEL000fqDv5Qf@0PUcwn5oP06,0*71
!AIVDO,1,1,,,B3KMVtP01NqD?WQeo1kECwn5oP06,0*60
$GPRMC,183445.00,A,1159.97720,N,06145.86087,W,0.123,,090716,,,D*61
$GPRMC,183446.00,A,1159.97711,N,06145.86093,W,0.475,300.30,090716,,,D*7D
!AIVDM,1,1,,A,B4eHoR000NqDCU1ens@6Kwo5oP06,0*7D
!AIVDM,1,1,,B,14R6Mr0019KTn7H6lOrW0mWJ0D0E,0*0C
!AIVDO,1,1,,,B3KMVtP01NqD?WQeo1fsgwo5oP06,0*7E
$GPRMC,183447.00,A,1159.97718,N,06145.86092,W,0.469,347.74,090716,,,D*7A
!AIVDM,1,1,,B,34R6Mr0019KTn7P6lOhG1mWN00qP,0*39
$GPRMC,183448.00,A,1159.97730,N,06145.86085,W,0.482,7.82,090716,,,D*72
!AIVDO,1,1,,,B3KMVtP01NqD?WQeo1l4swp5oP06,0*38
!AIVDM,1,1,,A,34R6Mr0019KTn7P6lOhG1mWN0000,0*1B
!AIVDM,1,1,,A,34R6Mr0019KTn7P6lOhG1mWN0000,0*1B
$GPRMC,183449.00,A,1159.97728,N,06145.86091,W,0.491,297.30,090716,,,D*7F
!AIVDM,1,1,,B,H3HhF04TCBD5A9s613ljhm183340,0*29
!AIVDM,1,1,,B,H40rd24U653hhhi82Ijlop000000,0*47
$GPRMC,183450.00,A,1159.97725,N,06145.86094,W,0.087,,090716,,,D*6D
!AIVDM,1,1,,A,14R6Mr0019KTn7T6lOQ70EWT00SI,0*7D
!AIVDO,1,1,,,B3KMVtP00NqD?WQeo1nqowq5oP06,0*63
!AIVDM,1,1,,B,B5NLjP000fqDKLQejt;JOwq5oP06,0*10
$GPRMC,183451.00,A,1159.97732,N,06145.86095,W,0.383,318.51,090716,,,D*7C
!AIVDM,1,1,,A,1000000P00KUBRh6qR8ea?wTp@NN,0*24
$GPRMC,183452.00,A,1159.97739,N,06145.86095,W,0.212,327.16,090716,,,D*72
!AIVDO,1,1,,,B3KMVtP00fqD?W1eo1s<Swr5oP06,0*44
$GPRMC,183453.00,A,1159.97740,N,06145.86096,W,0.074,,090716,,,D*63
!AIVDM,1,1,,B,14h?K60P00sUElv6q5gqNwwd28O?,0*27
!AIVDM,1,1,,B,34R6Mr0019KTn7P6lOAG0mWb0000,0*1C
!AIVDM,1,1,,B,B5N`HkP006qDP11en?gDOwrUkP06,0*69
$GPRMC,183454.00,A,1159.97737,N,06145.86101,W,0.248,277.92,090716,,,D*71
!AIVDO,1,1,,,B3KMVtP00fqD?W1eo1regws5oP06,0*29
$GPRMC,183455.00,A,1159.97735,N,06145.86103,W,0.074,,090716,,,D*6A
$GPRMC,183456.00,A,1159.97739,N,06145.86105,W,0.211,307.68,090716,,,D*76
!AIVDO,1,1,,,B3KMVtP00fqD?VQeo1s0Gwt5oP06,0*3B
$GPRMC,183457.00,A,1159.97743,N,06145.86104,W,0.117,,090716,,,D*6A
$GPRMC,183458.00,A,1159.97742,N,06145.86109,W,0.286,276.36,090716,,,D*7A
!AIVDO,1,1,,,B3KMVtP00vqD?VQeo1rdkwu5oP06,0*53
$GPRMC,183459.00,A,1159.97737,N,06145.86114,W,0.176,,090716,,,D*61
$GPRMC,183500.00,A,1159.97739,N,06145.86119,W,0.240,294.22,090716,,,D*78
!AIVDM,1,1,,B,14R6Mr0019KTn7b6lNk70UWn06B<,0*3B
!AIVDO,1,1,,,B3KMVtP00fqD?V1eo1roswP5oP06,0*15
$GPRMC,183501.00,A,1159.97746,N,06145.86122,W,0.207,320.84,090716,,,D*78
$GPRMC,183502.00,A,1159.97749,N,06145.86127,W,0.247,306.87,090716,,,D*72
!AIVDM,1,1,,B,1000000P01KUBRh6qR8FGgv0p81B,0*15
$GPRMC,183503.00,A,1159.97745,N,06145.86137,W,0.454,261.00,090716,,,D*75
!AIVDO,1,1,,,B3KMVtP01NqD?U1eo1vS;wQUoP06,0*2E
$GPRMC,183504.00,A,1159.97744,N,06145.86143,W,0.184,,090716,,,D*63
$GPRMC,183505.00,A,1159.97752,N,06145.86145,W,0.240,297.67,090716,,,D*7B
!AIVDO,1,1,,,B3KMVtP00fqD?TQeo1vr7wRUoP06,0*48
$GPRMC,183506.00,A,1159.97753,N,06145.86150,W,0.275,284.16,090716,,,D*7F
!AIVDM,1,1,,B,B3P>A@@0@vqCVS1f8?N>CwS5oP06,0*01
$GPRMC,183507.00,A,1159.97747,N,06145.86159,W,0.485,239.05,090716,,,D*7F
!AIVDO,1,1,,,B3KMVtP01NqD?T1eo1vEOwSUoP06,0*4F
$GPRMC,183508.00,A,1159.97743,N,06145.86167,W,0.285,246.11,090716,,,D*72
$GPRMC,183509.00,A,1159.97745,N,06145.86167,W,0.182,,090716,,,D*6F
!AIVDO,1,1,,,B3KMVtP00fqD?SQeo1vIowTUoP06,0*2A
$GPRMC,183510.00,A,1159.97744,N,06145.86170,W,0.262,247.84,090716,,,D*7E
$GPRMC,183511.00,A,1159.97734,N,06145.86180,W,0.609,224.47,090716,,,D*74
!AIVDO,1,1,,,B3KMVtP01fqD?S1eo1n<GwUUoP06,0*0F
!AIVDO,1,1,,A,B3KMVtP01fqD?S1eo1n<GwUUoP06,0*4E
$GPRMC,183512.00,A,1159.97729,N,06145.86186,W,0.166,,090716,,,D*6A
!AIVDM,1,1,,A,H3aQdclTCBD5J=b@5pilj00p6130,0*29
$GPRMC,183513.00,A,1159.97729,N,06145.86188,W,0.131,,090716,,,D*67
!AIVDO,1,1,,,B3KMVtP00NqD?RQeo1n<GwVUoP06,0*44
#
# proAIS2 Stopped log file at 14:35:19 2016/07/09
#
