$IIHDG,171,,,06,E*13
$IIMWV,282,R,11.6,N,A*1D
$IIMWV,284,T,12.3,N,A*1B
$GPRMC,070534,A,6009.2031,N,02453.6519,E,000.0,188.0,150510,,,A*70
$IIDPT,007.2,+0.3,*41
$IIHDG,171,,,06,E*13
$IIMWV,280,R,11.6,N,A*1F
$IIMWV,282,T,11.6,N,A*1B
$GPRMC,070535,A,6009.2031,N,02453.6519,E,000.0,188.0,150510,,,A*71
$IIDPT,007.2,+0.3,*41
$IIHDG,171,,,06,E*13
$IIMWV,277,R,11.6,N,A*17
$IIMWV,280,T,11.6,N,A*19
$GPRMC,070536,A,6009.2031,N,02453.6520,E,000.0,188.0,150510,,,A*78
$IIDPT,007.2,+0.3,*41
$IIHDG,171,,,06,E*13
$GPRMC,070537,A,6009.2031,N,02453.6520,E,000.0,188.0,150510,,,A*79
$IIMWV,276,R,11.6,N,A*16
$IIMWV,276,T,11.6,N,A*10
$IIDPT,007.2,+0.3,*41
$IIHDG,171,,,06,E*13
$GPRMC,070538,A,6009.2031,N,02453.6520,E,000.0,188.0,150510,,,A*76
$IIMWV,275,R,11.8,N,A*1B
$IIMWV,275,T,11.8,N,A*1D
$IIDPT,007.2,+0.3,*41
$GPRMC,070539,A,6009.2031,N,02453.6520,E,000.0,188.0,150510,,,A*77
$IIHDG,172,,,06,E*10
$IIMWV,275,R,11.8,N,A*1B
$IIMWV,275,T,11.8,N,A*1D
$IIDPT,007.2,+0.3,*41
$GPRMC,070540,A,6009.2031,N,02453.6520,E,000.0,188.0,150510,,,A*79
$IIHDG,171,,,06,E*13
$IIMWV,275,R,11.6,N,A*15
$IIMWV,275,T,11.8,N,A*1D
$IIDPT,007.2,+0.3,*41
$GPRMC,070541,A,6009.2031,N,02453.6520,E,000.0,188.0,150510,,,A*78
$IIHDG,172,,,06,E*10
$IIMWV,277,R,11.4,N,A*15
$IIMWV,275,T,11.6,N,A*13
$GPRMC,070542,A,6009.2030,N,02453.6520,E,000.4,188.0,150510,,,A*7E
$IIDPT,007.2,+0.3,*41
$IIHDG,171,,,06,E*13
$IIMWV,278,R,11.6,N,A*18
$IIMWV,277,T,11.4,N,A*13
$GPRMC,070543,A,6009.2030,N,02453.6520,E,000.0,188.0,150510,,,A*7B
$IIDPT,007.2,+0.3,*41
$IIHDG,171,,,06,E*13
$IIMWV,278,R,11.5,N,A*1B
$IIMWV,278,T,11.6,N,A*1E
$GPRMC,070544,A,6009.2030,N,02453.6520,E,000.0,188.0,150510,,,A*7C
$IIDPT,007.2,+0.3,*41
$IIHDG,172,,,06,E*10
$IIMWV,280,R,11.3,N,A*1A
$IIMWV,278,T,11.5,N,A*1D
$GPRMC,070545,A,6009.2030,N,02453.6520,E,000.0,188.0,150510,,,A*7D
$IIDPT,007.2,+0.3,*41
$IIHDG,172,,,06,E*10
$IIMWV,280,R,11.3,N,A*1A
$IIMWV,280,T,11.3,N,A*1C
$GPRMC,070546,A,6009.2030,N,02453.6520,E,000.0,188.0,150510,,,A*7E
$IIDPT,007.2,+0.3,*41
$IIHDG,172,,,06,E*10
$GPRMC,070547,A,6009.2030,N,02453.6520,E,000.0,188.0,150510,,,A*7F
$IIMWV,279,R,11.1,N,A*1E
$IIMWV,279,T,11.1,N,A*18
$IIDPT,007.2,+0.3,*41
$IIHDG,172,,,06,E*10
$GPRMC,070548,A,6009.2030,N,02453.6520,E,000.0,188.0,150510,,,A*70
$IIMWV,276,R,11.2,N,A*12
$IIMWV,277,T,11.0,N,A*17
$IIDPT,007.2,+0.3,*41
$GPRMC,070549,A,6009.2030,N,02453.6520,E,000.0,188.0,150510,,,A*71
$IIHDG,172,,,06,E*10
$IIMWV,276,R,11.2,N,A*12
$IIMWV,276,T,11.2,N,A*14
$IIDPT,007.2,+0.3,*41
$GPRMC,070550,A,6009.2030,N,02453.6520,E,000.0,188.0,150510,,,A*79
$IIHDG,172,,,06,E*10
$IIMWV,277,R,11.2,N,A*13
$IIMWV,276,T,11.2,N,A*14
$IIDPT,007.2,+0.3,*41
$GPRMC,070551,A,6009.2030,N,02453.6520,E,000.0,188.0,150510,,,A*78
$IIHDG,172,,,06,E*10
$IIMWV,278,R,11.4,N,A*1A
$IIMWV,277,T,11.2,N,A*15
$GPRMC,070552,A,6009.2030,N,02453.6520,E,000.0,188.0,150510,,,A*7B
$IIDPT,007.2,+0.3,*41
$IIHDG,172,,,06,E*10
$IIMWV,277,R,11.7,N,A*16
$IIMWV,278,T,11.4,N,A*1C
$GPRMC,070553,A,6009.2030,N,02453.6520,E,000.0,188.0,150510,,,A*7A
$IIDPT,007.2,+0.3,*41
$IIHDG,171,,,06,E*13
$IIMWV,276,R,11.9,N,A*19
$IIMWV,277,T,11.7,N,A*10
$GPRMC,070554,A,6009.2030,N,02453.6520,E,000.0,188.0,150510,,,A*7D
$IIDPT,007.2,+0.3,*41
$IIHDG,171,,,06,E*13
$IIMWV,276,R,11.8,N,A*18
$IIMWV,276,T,11.9,N,A*1F
$GPRMC,070555,A,6009.2030,N,02453.6520,E,000.0,188.0,150510,,,A*7C
$IIDPT,007.2,+0.3,*41
$IIHDG,172,,,06,E*10
$IIMWV,274,R,11.8,N,A*1A
$IIMWV,276,T,11.8,N,A*1E
$GPRMC,070556,A,6009.2030,N,02453.6520,E,000.0,188.0,150510,,,A*7F
$IIDPT,007.2,+0.3,*41
$IIHDG,171,,,06,E*13
$IIMWV,273,R,11.5,N,A*10
$GPRMC,070557,A,6009.2031,N,02453.6520,E,000.2,188.0,150510,,,A*7D
$IIMWV,273,T,11.5,N,A*16
$IIDPT,007.2,+0.3,*41
$IIHDG,171,,,06,E*13
$GPRMC,070558,A,6009.2031,N,02453.6520,E,000.0,188.0,150510,,,A*70
$IIMWV,275,R,11.1,N,A*12
$IIMWV,274,T,11.3,N,A*17
$IIDPT,007.2,+0.3,*41
$GPRMC,070559,A,6009.2031,N,02453.6520,E,000.0,188.0,150510,,,A*71
$IIHDG,171,,,06,E*13
$IIMWV,275,R,11.3,N,A*10
$IIMWV,275,T,11.1,N,A*14
$IIDPT,007.2,+0.3,*41
$GPRMC,070600,A,6009.2031,N,02453.6520,E,000.0,188.0,150510,,,A*7E
$IIHDG,172,,,06,E*10
$IIMWV,274,R,11.9,N,A*1B
$IIMWV,275,T,11.3,N,A*16
$IIDPT,007.2,+0.3,*41
$GPRMC,070601,A,6009.2031,N,02453.6520,E,000.0,188.0,150510,,,A*7F
$IIHDG,172,,,06,E*10
$IIMWV,273,R,12.0,N,A*16
$IIMWV,274,T,11.9,N,A*1D
$GPRMC,070602,A,6009.2031,N,02453.6520,E,000.0,188.0,150510,,,A*7C
$IIDPT,007.2,+0.3,*41
$IIHDG,172,,,06,E*10
$IIMWV,274,R,12.4,N,A*15
$IIMWV,273,T,12.0,N,A*10
$GPRMC,070603,A,6009.2031,N,02453.6520,E,000.0,188.0,150510,,,A*7D
$IIDPT,007.2,+0.3,*41
$IIHDG,172,,,06,E*10
$IIMWV,275,R,12.4,N,A*14
$IIMWV,274,T,12.4,N,A*13
$GPRMC,070604,A,6009.2031,N,02453.6520,E,000.0,188.0,150510,,,A*7A
$IIDPT,007.2,+0.3,*41
$IIHDG,172,,,06,E*10
$IIMWV,275,R,12.4,N,A*14
$IIMWV,275,T,12.4,N,A*12
$GPRMC,070605,A,6009.2031,N,02453.6520,E,000.0,188.0,150510,,,A*7B
$IIDPT,007.2,+0.3,*41
$IIHDG,172,,,06,E*10
$IIMWV,274,R,12.4,N,A*15
$IIMWV,275,T,12.4,N,A*12
$GPRMC,070606,A,6009.2031,N,02453.6520,E,000.0,188.0,150510,,,A*78
$IIDPT,007.2,+0.3,*41
$IIHDG,172,,,06,E*10
$GPRMC,070607,A,6009.2031,N,02453.6520,E,000.0,188.0,150510,,,A*79
$IIMWV,273,R,12.7,N,A*11
$IIMWV,273,T,12.7,N,A*17
$IIDPT,007.2,+0.3,*41
$IIHDG,172,,,06,E*10
$GPRMC,070608,A,6009.2031,N,02453.6520,E,000.0,188.0,150510,,,A*76
$IIMWV,269,R,13.5,N,A*19
$IIMWV,271,T,13.0,N,A*13
$IIDPT,007.2,+0.3,*41
$GPRMC,070609,A,6009.2031,N,02453.6520,E,000.0,188.0,150510,,,A*77
$IIHDG,171,,,06,E*13
$IIMWV,266,R,13.9,N,A*1A
$IIMWV,269,T,13.5,N,A*1F
$IIDPT,007.2,+0.3,*41
$GPRMC,070610,A,6009.2031,N,02453.6520,E,000.0,188.0,150510,,,A*7F
$IIHDG,171,,,06,E*13
$IIMWV,264,R,14.5,N,A*13
$IIMWV,266,T,13.9,N,A*1C
$IIDPT,007.2,+0.3,*41
$GPRMC,070611,A,6009.2031,N,02453.6520,E,000.0,188.0,150510,,,A*7E
$IIHDG,171,,,06,E*13
$IIMWV,264,R,14.8,N,A*1E
$IIMWV,264,T,14.5,N,A*15
$GPRMC,070612,A,6009.2031,N,02453.6520,E,000.0,188.0,150510,,,A*7D
$IIDPT,007.2,+0.3,*41
$IIHDG,171,,,06,E*13
$IIMWV,264,R,15.0,N,A*17
$IIMWV,264,T,14.8,N,A*18
$GPRMC,070613,A,6009.2031,N,02453.6520,E,000.0,188.0,150510,,,A*7C
$IIDPT,007.2,+0.3,*41
$IIHDG,171,,,06,E*13
$IIMWV,264,R,15.2,N,A*15
$IIMWV,264,T,15.0,N,A*11
$GPRMC,070614,A,6009.2031,N,02453.6520,E,000.0,188.0,150510,,,A*7B
$IIDPT,007.2,+0.3,*41
$IIHDG,171,,,06,E*13
$IIMWV,264,R,15.1,N,A*16
$IIMWV,264,T,15.2,N,A*13
$GPRMC,070615,A,6009.2031,N,02453.6520,E,000.0,188.0,150510,,,A*7A
$IIDPT,007.2,+0.3,*41
$IIHDG,171,,,06,E*13
$IIMWV,264,R,15.4,N,A*13
$IIMWV,264,T,15.1,N,A*10
$GPRMC,070616,A,6009.2031,N,02453.6520,E,000.1,188.0,150510,,,A*78
$IIDPT,007.2,+0.3,*41
$IIHDG,171,,,06,E*13
$IIMWV,264,R,15.3,N,A*14
$GPRMC,070617,A,6009.2031,N,02453.6521,E,000.0,188.0,150510,,,A*79
$IIMWV,264,T,15.3,N,A*12
$IIDPT,007.2,+0.3,*41
$IIHDG,171,,,06,E*13
$GPRMC,070618,A,6009.2031,N,02453.6521,E,000.0,188.0,150510,,,A*76
$IIMWV,263,R,14.2,N,A*13
$IIMWV,264,T,14.6,N,A*16
$IIDPT,007.2,+0.3,*41
$GPRMC,070619,A,6009.2031,N,02453.6521,E,000.0,188.0,150510,,,A*77
$IIHDG,172,,,06,E*10
$IIMWV,260,R,13.7,N,A*12
$IIMWV,263,T,14.2,N,A*15
$IIDPT,007.2,+0.3,*41
$GPRMC,070620,A,6009.2031,N,02453.6521,E,000.0,188.0,150510,,,A*7D
$IIHDG,172,,,06,E*10
$IIMWV,260,R,13.5,N,A*10
$IIMWV,260,T,13.7,N,A*14
$IIDPT,007.2,+0.3,*41
$GPRMC,070621,A,6009.2030,N,02453.6521,E,000.4,188.0,150510,,,A*79
$IIHDG,172,,,06,E*10
$IIMWV,260,R,13.2,N,A*17
$IIMWV,260,T,13.5,N,A*16
$GPRMC,070622,A,6009.2030,N,02453.6521,E,000.0,188.0,150510,,,A*7E
$IIDPT,007.2,+0.3,*41
$IIHDG,172,,,06,E*10
$IIMWV,260,R,13.4,N,A*11
$IIMWV,260,T,13.2,N,A*11
$GPRMC,070623,A,6009.2030,N,02453.6521,E,000.0,188.0,150510,,,A*7F
$IIDPT,007.2,+0.3,*41
$IIHDG,172,,,06,E*10
$IIMWV,259,R,13.5,N,A*1A
$IIMWV,260,T,13.4,N,A*17
$GPRMC,070624,A,6009.2030,N,02453.6523,E,000.2,188.0,150510,,,A*78
$IIDPT,007.2,+0.3,*41
$IIHDG,172,,,06,E*10
$IIMWV,259,R,13.5,N,A*1A
$IIMWV,259,T,13.5,N,A*1C
$GPRMC,070625,A,6009.2030,N,02453.6523,E,000.3,188.0,150510,,,A*78
$IIDPT,007.2,+0.3,*41
$IIHDG,172,,,06,E*10
$IIMWV,260,R,13.5,N,A*10
$IIMWV,259,T,13.5,N,A*1C
$GPRMC,070626,A,6009.2031,N,02453.6524,E,000.2,188.0,150510,,,A*7C
$IIDPT,007.2,+0.3,*41
$IIHDG,171,,,06,E*13
$GPRMC,070627,A,6009.2031,N,02453.6524,E,000.0,188.0,150510,,,A*7F
$IIMWV,260,R,13.7,N,A*12
$IIMWV,260,T,13.7,N,A*14
$IIDPT,007.2,+0.3,*41
$IIHDG,171,,,06,E*13
$GPRMC,070628,A,6009.2031,N,02453.6524,E,000.0,188.0,150510,,,A*70
$IIMWV,260,R,14.0,N,A*12
$IIMWV,260,T,14.0,N,A*14
$IIDPT,007.2,+0.3,*41
$GPRMC,070629,A,6009.2031,N,02453.6524,E,000.0,188.0,150510,,,A*71
$IIHDG,171,,,06,E*13
$IIMWV,260,R,14.2,N,A*10
$IIMWV,260,T,14.0,N,A*14
$IIDPT,007.2,+0.3,*41
$GPRMC,070630,A,6009.2031,N,02453.6525,E,000.1,188.0,150510,,,A*79
$IIHDG,172,,,06,E*10
$IIMWV,261,R,14.2,N,A*11
$IIMWV,260,T,14.2,N,A*16
$IIDPT,007.2,+0.3,*41
$GPRMC,070631,A,6009.2031,N,02453.6525,E,000.0,188.0,150510,,,A*79
$IIHDG,172,,,06,E*10
$IIMWV,261,R,14.2,N,A*11
$IIMWV,261,T,14.2,N,A*17
$GPRMC,070632,A,6009.2031,N,02453.6525,E,000.0,188.0,150510,,,A*7A
$IIDPT,007.2,+0.3,*41
$IIHDG,171,,,06,E*13
$IIMWV,260,R,14.1,N,A*13
$IIMWV,261,T,14.2,N,A*17
$GPRMC,070633,A,6009.2031,N,02453.6525,E,000.0,188.0,150510,,,A*7B
$IIDPT,007.2,+0.3,*41
$IIHDG,171,,,06,E*13
$IIMWV,261,R,14.0,N,A*13
$IIMWV,260,T,14.1,N,A*15
$GPRMC,070634,A,6009.2031,N,02453.6525,E,000.0,188.0,150510,,,A*7C
$IIDPT,007.2,+0.3,*41
$IIHDG,171,,,06,E*13
$IIMWV,261,R,13.6,N,A*12
$IIMWV,261,T,14.0,N,A*15
$GPRMC,070635,A,6009.2031,N,02453.6525,E,000.0,188.0,150510,,,A*7D
$IIDPT,007.2,+0.3,*41
$IIHDG,172,,,06,E*10
$IIMWV,260,R,13.0,N,A*15
$IIMWV,261,T,13.6,N,A*14
$GPRMC,070636,A,6009.2031,N,02453.6525,E,000.0,188.0,150510,,,A*7E
$IIDPT,007.2,+0.3,*41
$IIHDG,172,,,06,E*10
$GPRMC,070637,A,6009.2031,N,02453.6525,E,000.0,188.0,150510,,,A*7F
$IIMWV,259,R,12.6,N,A*18
$IIMWV,259,T,12.6,N,A*1E
$IIDPT,007.2,+0.3,*41
$IIHDG,172,,,06,E*10
$GPRMC,070638,A,6009.2031,N,02453.6525,E,000.0,188.0,150510,,,A*70
$IIMWV,259,R,12.7,N,A*19
$IIMWV,259,T,12.7,N,A*1F
$IIDPT,007.2,+0.3,*41
$GPRMC,070639,A,6009.2031,N,02453.6525,E,000.0,188.0,150510,,,A*71
$IIHDG,171,,,06,E*13
$IIMWV,259,R,12.8,N,A*16
$IIMWV,259,T,12.7,N,A*1F
$IIDPT,007.2,+0.3,*41
$GPRMC,070640,A,6009.2031,N,02453.6525,E,000.0,188.0,150510,,,A*7F
$IIHDG,171,,,06,E*13
$IIMWV,259,R,13.1,N,A*1E
$IIMWV,259,T,12.8,N,A*10
$IIDPT,007.2,+0.3,*41
$GPRMC,070641,A,6009.2030,N,02453.6526,E,000.1,188.0,150510,,,A*7D
$IIHDG,171,,,06,E*13
$IIMWV,262,R,13.2,N,A*15
$IIMWV,259,T,13.1,N,A*18
$GPRMC,070642,A,6009.2030,N,02453.6526,E,000.0,188.0,150510,,,A*7F
$IIDPT,007.2,+0.3,*41
$IIHDG,171,,,06,E*13
$IIMWV,263,R,13.2,N,A*14
$IIMWV,262,T,13.2,N,A*13
$GPRMC,070643,A,6009.2030,N,02453.6526,E,000.0,188.0,150510,,,A*7E
$IIDPT,007.2,+0.3,*41
$IIHDG,171,,,06,E*13
$IIMWV,264,R,13.3,N,A*12
$IIMWV,263,T,13.2,N,A*12
$GPRMC,070644,A,6009.2030,N,02453.6526,E,000.0,188.0,150510,,,A*79
$IIDPT,007.2,+0.3,*41
$IIHDG,171,,,06,E*13
$IIMWV,267,R,13.3,N,A*11
$IIMWV,264,T,13.3,N,A*14
$GPRMC,070645,A,6009.2030,N,02453.6526,E,000.0,188.0,150510,,,A*78
$IIDPT,007.2,+0.3,*41
$IIHDG,171,,,06,E*13
$IIMWV,269,R,13.3,N,A*1F
$IIMWV,267,T,13.3,N,A*17
$GPRMC,070646,A,6009.2030,N,02453.6526,E,000.0,188.0,150510,,,A*7B
$IIDPT,007.2,+0.3,*41
$IIHDG,171,,,06,E*13
$GPRMC,070647,A,6009.2030,N,02453.6526,E,000.0,188.0,150510,,,A*7A
$IIMWV,273,R,13.3,N,A*14
$IIMWV,273,T,13.3,N,A*12
$IIDPT,007.2,+0.3,*41
$IIHDG,171,,,06,E*13
$GPRMC,070648,A,6009.2030,N,02453.6526,E,000.0,188.0,150510,,,A*75
$IIMWV,271,R,13.0,N,A*15
$IIMWV,273,T,13.2,N,A*13
$IIDPT,007.2,+0.3,*41
$GPRMC,070649,A,6009.2030,N,02453.6526,E,000.0,188.0,150510,,,A*74
$IIHDG,171,,,06,E*13
$IIMWV,270,R,13.0,N,A*14
$IIMWV,271,T,13.0,N,A*13
$IIDPT,007.2,+0.3,*41
$GPRMC,070650,A,6009.2030,N,02453.6526,E,000.0,188.0,150510,,,A*7C
$IIHDG,171,,,06,E*13
$IIMWV,269,R,12.9,N,A*14
$IIMWV,270,T,13.0,N,A*12
$IIDPT,007.2,+0.3,*41
$GPRMC,070651,A,6009.2030,N,02453.6526,E,000.0,188.0,150510,,,A*7D
$IIHDG,171,,,06,E*13
$IIMWV,267,R,12.7,N,A*14
$IIMWV,269,T,12.9,N,A*12
$GPRMC,070652,A,6009.2030,N,02453.6526,E,000.1,188.0,150510,,,A*7F
$IIDPT,007.2,+0.3,*41
$IIHDG,171,,,06,E*13
$IIMWV,265,R,12.6,N,A*17
$IIMWV,267,T,12.7,N,A*12
$GPRMC,070653,A,6009.2030,N,02453.6527,E,000.2,188.0,150510,,,A*7C
$IIDPT,007.2,+0.3,*41
$IIHDG,171,,,06,E*13
$IIMWV,265,R,12.6,N,A*17
$IIMWV,265,T,12.6,N,A*11
$GPRMC,070654,A,6009.2030,N,02453.6527,E,000.0,188.0,150510,,,A*79
$IIDPT,007.2,+0.3,*41
$IIHDG,171,,,06,E*13
$IIMWV,267,R,12.3,N,A*10
$IIMWV,265,T,12.6,N,A*11
$GPRMC,070655,A,6009.2030,N,02453.6527,E,000.0,188.0,150510,,,A*78
$IIDPT,007.2,+0.3,*41
$IIHDG,171,,,06,E*13
$IIMWV,270,R,12.0,N,A*15
$IIMWV,267,T,12.3,N,A*16
$GPRMC,070656,A,6009.2030,N,02453.6527,E,000.0,188.0,150510,,,A*7B
$IIDPT,007.2,+0.3,*41
$IIHDG,171,,,06,E*13
$GPRMC,070657,A,6009.2030,N,02453.6527,E,000.0,188.0,150510,,,A*7A
$IIMWV,273,R,11.9,N,A*1C
$IIMWV,273,T,11.9,N,A*1A
$IIDPT,007.2,+0.3,*41
$IIHDG,171,,,06,E*13
$GPRMC,070658,A,6009.2030,N,02453.6527,E,000.0,188.0,150510,,,A*75
$IIMWV,273,R,12.1,N,A*17
$IIMWV,273,T,12.0,N,A*10
$IIDPT,007.2,+0.3,*41
$GPRMC,070659,A,6009.2030,N,02453.6527,E,000.0,188.0,150510,,,A*74
$IIHDG,171,,,06,E*13
$IIMWV,273,R,12.2,N,A*14
$IIMWV,273,T,12.1,N,A*11
$IIDPT,007.2,+0.3,*41
$GPRMC,070700,A,6009.2030,N,02453.6527,E,000.0,188.0,150510,,,A*79
$IIHDG,171,,,06,E*13
$IIMWV,271,R,11.9,N,A*1E
$IIMWV,273,T,12.2,N,A*12
$IIDPT,007.2,+0.3,*41
$GPRMC,070701,A,6009.2029,N,02453.6527,E,000.2,188.0,150510,,,A*72
$IIHDG,171,,,06,E*13
$IIMWV,272,R,11.7,N,A*13
$IIMWV,271,T,11.9,N,A*18
$GPRMC,070702,A,6009.2029,N,02453.6527,E,000.0,188.0,150510,,,A*73
$IIDPT,007.2,+0.3,*41
$IIHDG,171,,,06,E*13
$IIMWV,273,R,11.9,N,A*1C
$IIMWV,272,T,11.7,N,A*15
$GPRMC,070703,A,6009.2029,N,02453.6527,E,000.0,188.0,150510,,,A*72
$IIDPT,007.2,+0.3,*41
$IIHDG,171,,,06,E*13
$IIMWV,274,R,12.3,N,A*12
$IIMWV,273,T,11.9,N,A*1A
$GPRMC,070704,A,6009.2029,N,02453.6527,E,000.0,188.0,150510,,,A*75
$IIDPT,007.2,+0.3,*41
$IIHDG,171,,,06,E*13
$IIMWV,276,R,12.8,N,A*1B
$IIMWV,274,T,12.3,N,A*14
$GPRMC,070705,A,6009.2029,N,02453.6527,E,000.0,188.0,150510,,,A*74
$IIDPT,007.2,+0.3,*41
$IIHDG,172,,,06,E*10
$IIMWV,276,R,12.9,N,A*1A
$IIMWV,276,T,12.8,N,A*1D
$GPRMC,070706,A,6009.2029,N,02453.6527,E,000.0,188.0,150510,,,A*77
$IIDPT,007.2,+0.3,*41
$IIHDG,171,,,06,E*13
$IIMWV,275,R,13.2,N,A*13
$GPRMC,070707,A,6009.2029,N,02453.6527,E,000.0,188.0,150510,,,A*76
$IIMWV,275,T,13.2,N,A*15
$IIDPT,007.2,+0.3,*41
$IIHDG,171,,,06,E*13
$GPRMC,070708,A,6009.2029,N,02453.6527,E,000.0,188.0,150510,,,A*79
$IIMWV,273,R,13.6,N,A*11
$IIMWV,273,T,13.5,N,A*14
$IIDPT,007.2,+0.3,*41
$GPRMC,070709,A,6009.2029,N,02453.6527,E,000.0,188.0,150510,,,A*78
$IIHDG,172,,,06,E*10
$IIMWV,273,R,13.6,N,A*11
$IIMWV,273,T,13.6,N,A*17
$IIDPT,007.2,+0.3,*41
$GPRMC,070710,A,6009.2029,N,02453.6527,E,000.0,188.0,150510,,,A*70
$IIHDG,172,,,06,E*10
$IIMWV,273,R,13.7,N,A*10
$IIMWV,273,T,13.6,N,A*17
$IIDPT,007.2,+0.3,*41
$GPRMC,070711,A,6009.2029,N,02453.6527,E,000.0,188.0,150510,,,A*71
$IIHDG,172,,,06,E*10
$IIMWV,273,R,13.9,N,A*1E
$IIMWV,273,T,13.7,N,A*16
$GPRMC,070712,A,6009.2029,N,02453.6527,E,000.0,188.0,150510,,,A*72
$IIDPT,007.2,+0.3,*41
$IIHDG,172,,,06,E*10
$IIMWV,274,R,13.4,N,A*14
$IIMWV,273,T,13.9,N,A*18
$GPRMC,070713,A,6009.2029,N,02453.6527,E,000.0,188.0,150510,,,A*73
$IIDPT,007.2,+0.3,*41
$IIHDG,172,,,06,E*10
$IIMWV,275,R,13.1,N,A*10
$IIMWV,274,T,13.4,N,A*12
$GPRMC,070714,A,6009.2029,N,02453.6526,E,000.0,188.0,150510,,,A*75
$IIDPT,007.2,+0.3,*41
$IIHDG,172,,,06,E*10
$IIMWV,275,R,12.9,N,A*19
$IIMWV,275,T,13.1,N,A*16
$GPRMC,070715,A,6009.2029,N,02453.6526,E,000.0,188.0,150510,,,A*74
$IIDPT,007.2,+0.3,*41
$IIHDG,171,,,06,E*13
$IIMWV,275,R,13.0,N,A*11
$IIMWV,275,T,12.9,N,A*1F
$GPRMC,070716,A,6009.2029,N,02453.6527,E,000.2,188.0,150510,,,A*74
$IIDPT,007.2,+0.3,*41
$IIHDG,171,,,06,E*13
$GPRMC,070717,A,6009.2029,N,02453.6527,E,000.0,188.0,150510,,,A*77
$IIMWV,276,R,12.8,N,A*1B
$IIMWV,276,T,12.8,N,A*1D
$IIDPT,007.2,+0.3,*41
$IIHDG,171,,,06,E*13
$GPRMC,070718,A,6009.2029,N,02453.6527,E,000.0,188.0,150510,,,A*78
$IIMWV,278,R,12.0,N,A*1D
$IIMWV,277,T,12.2,N,A*16
$IIDPT,007.2,+0.3,*41
$GPRMC,070719,A,6009.2029,N,02453.6527,E,000.0,188.0,150510,,,A*79
$IIHDG,171,,,06,E*13
$IIMWV,279,R,11.9,N,A*16
$IIMWV,278,T,12.0,N,A*1B
$IIDPT,007.2,+0.3,*41
$GPRMC,070720,A,6009.2029,N,02453.6527,E,000.3,188.0,150510,,,A*70
$IIHDG,171,,,06,E*13
$IIMWV,278,R,12.2,N,A*1F
$IIMWV,279,T,11.9,N,A*10
$IIDPT,007.2,+0.3,*41
$GPRMC,070721,A,6009.2029,N,02453.6526,E,000.0,188.0,150510,,,A*73
$IIHDG,171,,,06,E*13
$IIMWV,277,R,12.7,N,A*15
$IIMWV,278,T,12.2,N,A*19
$GPRMC,070722,A,6009.2029,N,02453.6526,E,000.0,188.0,150510,,,A*70
$IIDPT,007.2,+0.3,*41
$IIHDG,171,,,06,E*13
$IIMWV,276,R,13.5,N,A*17
$IIMWV,277,T,12.7,N,A*13
$GPRMC,070723,A,6009.2029,N,02453.6526,E,000.0,188.0,150510,,,A*71
$IIDPT,007.2,+0.3,*41
$IIHDG,171,,,06,E*13
$IIMWV,275,R,13.6,N,A*17
$IIMWV,276,T,13.5,N,A*11
$GPRMC,070724,A,6009.2029,N,02453.6526,E,000.0,188.0,150510,,,A*76
$IIDPT,007.2,+0.3,*41
$IIHDG,171,,,06,E*13
$IIMWV,274,R,13.6,N,A*16
$IIMWV,275,T,13.6,N,A*11
$GPRMC,070725,A,6009.2029,N,02453.6526,E,000.0,188.0,150510,,,A*77
$IIDPT,007.2,+0.3,*41
$IIHDG,171,,,06,E*13
$IIMWV,274,R,13.6,N,A*16
$IIMWV,274,T,13.6,N,A*10
$GPRMC,070726,A,6009.2029,N,02453.6526,E,000.0,188.0,150510,,,A*74
$IIDPT,007.2,+0.3,*41
$IIHDG,171,,,06,E*13
$IIMWV,275,R,13.8,N,A*19
$GPRMC,070727,A,6009.2029,N,02453.6526,E,000.0,188.0,150510,,,A*75
$IIMWV,275,T,13.8,N,A*1F
$IIDPT,007.2,+0.3,*41
$IIHDG,172,,,06,E*10
$GPRMC,070728,A,6009.2029,N,02453.6526,E,000.0,188.0,150510,,,A*7A
$IIMWV,276,R,14.6,N,A*13
$IIMWV,276,T,14.2,N,A*11
$IIDPT,007.2,+0.3,*41
$GPRMC,070729,A,6009.2029,N,02453.6526,E,000.0,188.0,150510,,,A*7B
$IIHDG,172,,,06,E*10
$IIMWV,277,R,15.1,N,A*14
$IIMWV,276,T,14.6,N,A*15
$IIDPT,007.2,+0.3,*41
$GPRMC,070730,A,6009.2029,N,02453.6526,E,000.0,188.0,150510,,,A*73
$IIHDG,171,,,06,E*13
$IIMWV,278,R,15.0,N,A*1A
$IIMWV,277,T,15.1,N,A*12
$IIDPT,007.2,+0.3,*41
$GPRMC,070731,A,6009.2029,N,02453.6526,E,000.0,188.0,150510,,,A*72
$IIHDG,171,,,06,E*13
$IIMWV,279,R,15.1,N,A*1A
$IIMWV,278,T,15.0,N,A*1C
$GPRMC,070732,A,6009.2029,N,02453.6526,E,000.0,188.0,150510,,,A*71
$IIDPT,007.2,+0.3,*41
$IIHDG,171,,,06,E*13
$IIMWV,280,R,15.7,N,A*1A
$IIMWV,279,T,15.1,N,A*1C
$GPRMC,070733,A,6009.2029,N,02453.6526,E,000.0,188.0,150510,,,A*70
$IIDPT,007.2,+0.3,*41
$IIHDG,170,,,06,E*12
$IIMWV,280,R,15.9,N,A*14
$IIMWV,280,T,15.7,N,A*1C
$GPRMC,070734,A,6009.2029,N,02453.6526,E,000.0,188.0,150510,,,A*77
$IIDPT,007.2,+0.3,*41
$IIHDG,171,,,06,E*13
$IIMWV,281,R,15.8,N,A*14
$IIMWV,280,T,15.9,N,A*12
$GPRMC,070735,A,6009.2029,N,02453.6526,E,000.0,188.0,150510,,,A*76
$IIDPT,007.2,+0.3,*41
$IIHDG,172,,,06,E*10
$IIMWV,280,R,15.5,N,A*18
$IIMWV,281,T,15.8,N,A*12
$GPRMC,070736,A,6009.2029,N,02453.6526,E,000.0,188.0,150510,,,A*75
$IIDPT,007.2,+0.3,*41
$IIHDG,171,,,06,E*13
$GPRMC,070737,A,6009.2029,N,02453.6526,E,000.0,188.0,150510,,,A*74
$IIMWV,280,R,15.5,N,A*18
$IIMWV,280,T,15.5,N,A*1E
$IIDPT,007.2,+0.3,*41
$IIHDG,171,,,06,E*13
$GPRMC,070738,A,6009.2029,N,02453.6526,E,000.0,188.0,150510,,,A*7B
$IIMWV,281,R,16.0,N,A*1F
$IIMWV,280,T,15.6,N,A*1D
$IIDPT,007.2,+0.3,*41
$GPRMC,070739,A,6009.2029,N,02453.6526,E,000.0,188.0,150510,,,A*7A
$IIHDG,171,,,06,E*13
$IIMWV,281,R,16.4,N,A*1B
$IIMWV,281,T,16.0,N,A*19
$IIDPT,007.2,+0.3,*41
$GPRMC,070740,A,6009.2029,N,02453.6526,E,000.0,188.0,150510,,,A*74
$IIHDG,171,,,06,E*13
$IIMWV,282,R,16.3,N,A*1F
$IIMWV,281,T,16.4,N,A*1D
$IIDPT,007.2,+0.3,*41
$GPRMC,070741,A,6009.2029,N,02453.6526,E,000.0,188.0,150510,,,A*75
$IIHDG,173,,,06,E*11
$IIMWV,283,R,16.3,N,A*1E
$IIMWV,282,T,16.3,N,A*19
$GPRMC,070742,A,6009.2029,N,02453.6526,E,000.0,188.0,150510,,,A*76
$IIDPT,007.2,+0.3,*41
$IIHDG,174,,,06,E*16
$IIMWV,284,R,16.3,N,A*19
$IIMWV,283,T,16.3,N,A*18
$GPRMC,070743,A,6009.2029,N,02453.6526,E,000.0,188.0,150510,,,A*77
$IIDPT,007.2,+0.3,*41
$IIHDG,173,,,06,E*11
$IIMWV,284,R,16.1,N,A*1B
$IIMWV,284,T,16.3,N,A*1F
$GPRMC,070744,A,6009.2029,N,02453.6526,E,000.0,188.0,150510,,,A*70
$IIDPT,007.2,+0.3,*41
$IIHDG,172,,,06,E*10
$IIMWV,284,R,15.7,N,A*1E
$IIMWV,284,T,16.1,N,A*1D
$GPRMC,070745,A,6009.2029,N,02453.6526,E,000.0,188.0,150510,,,A*71
$IIDPT,007.2,+0.3,*41
$IIHDG,172,,,06,E*10
$IIMWV,283,R,15.2,N,A*1C
$IIMWV,284,T,15.7,N,A*18
$GPRMC,070746,A,6009.2029,N,02453.6526,E,000.0,188.0,150510,,,A*72
$IIDPT,007.2,+0.3,*41
$IIHDG,172,,,06,E*10
$GPRMC,070747,A,6009.2029,N,02453.6526,E,000.0,188.0,150510,,,A*73
$IIMWV,282,R,15.2,N,A*1D
$IIMWV,282,T,15.2,N,A*1B
$IIDPT,007.2,+0.3,*41
$IIHDG,172,,,06,E*10
$GPRMC,070748,A,6009.2029,N,02453.6526,E,000.0,188.0,150510,,,A*7C
$IIMWV,279,R,15.4,N,A*1F
$IIMWV,280,T,15.3,N,A*18
$IIDPT,007.2,+0.3,*41
$GPRMC,070749,A,6009.2029,N,02453.6526,E,000.0,188.0,150510,,,A*7D
$IIHDG,171,,,06,E*13
$IIMWV,278,R,15.6,N,A*1C
$IIMWV,279,T,15.4,N,A*19
$IIDPT,007.2,+0.3,*41
$GPRMC,070750,A,6009.2029,N,02453.6526,E,000.0,188.0,150510,,,A*75
$IIHDG,171,,,06,E*13
$IIMWV,278,R,15.2,N,A*18
$IIMWV,278,T,15.6,N,A*1A
$IIDPT,007.2,+0.3,*41
$GPRMC,070751,A,6009.2029,N,02453.6526,E,000.0,188.0,150510,,,A*74
$IIHDG,171,,,06,E*13
$IIMWV,278,R,15.0,N,A*1A
$IIMWV,278,T,15.2,N,A*1E
$GPRMC,070752,A,6009.2029,N,02453.6526,E,000.0,188.0,150510,,,A*77
$IIDPT,007.2,+0.3,*41
$IIHDG,172,,,06,E*10
$IIMWV,278,R,14.9,N,A*12
$IIMWV,278,T,15.0,N,A*1C
$GPRMC,070753,A,6009.2029,N,02453.6526,E,000.0,188.0,150510,,,A*76
$IIDPT,007.2,+0.3,*41
$IIHDG,172,,,06,E*10
$IIMWV,276,R,14.7,N,A*12
$IIMWV,278,T,14.9,N,A*14
$GPRMC,070754,A,6009.2029,N,02453.6526,E,000.0,188.0,150510,,,A*71
$IIDPT,007.2,+0.3,*41
$IIHDG,172,,,06,E*10
$IIMWV,275,R,14.4,N,A*12
$IIMWV,276,T,14.7,N,A*14
$GPRMC,070755,A,6009.2029,N,02453.6526,E,000.0,188.0,150510,,,A*70
$IIDPT,007.2,+0.3,*41
$IIHDG,172,,,06,E*10
$IIMWV,274,R,14.5,N,A*12
$IIMWV,275,T,14.4,N,A*14
$GPRMC,070756,A,6009.2029,N,02453.6526,E,000.0,188.0,150510,,,A*73
$IIDPT,007.2,+0.3,*41
$IIHDG,173,,,06,E*11
$IIMWV,273,R,14.8,N,A*18
$GPRMC,070757,A,6009.2030,N,02453.6525,E,000.5,188.0,150510,,,A*7C
$IIMWV,273,T,14.8,N,A*1E
$IIDPT,007.2,+0.3,*41
$IIHDG,174,,,06,E*16
$GPRMC,070758,A,6009.2029,N,02453.6525,E,000.0,188.0,150510,,,A*7E
$IIMWV,273,R,15.0,N,A*11
$IIMWV,273,T,14.8,N,A*1E
$IIDPT,007.2,+0.3,*41
$GPRMC,070759,A,6009.2029,N,02453.6525,E,000.0,188.0,150510,,,A*7F
$IIHDG,173,,,06,E*11
$IIMWV,273,R,15.4,N,A*15
$IIMWV,273,T,15.0,N,A*17
$IIDPT,007.2,+0.3,*41
$GPRMC,070800,A,6009.2029,N,02453.6525,E,000.0,188.0,150510,,,A*7C
$IIHDG,172,,,06,E*10
$IIMWV,273,R,15.2,N,A*13
$IIMWV,273,T,15.4,N,A*13
$IIDPT,007.2,+0.3,*41
$GPRMC,070801,A,6009.2029,N,02453.6525,E,000.0,188.0,150510,,,A*7D
$GPRMC,070802,A,6009.2029,N,02453.6525,E,000.0,188.0,150510,,,A*7E
$GPRMC,070803,A,6009.2029,N,02453.6525,E,000.0,188.0,150510,,,A*7F
$IIHDG,172,,,06,E*10
$IIMWV,274,R,15.2,N,A*14
$IIMWV,273,T,15.2,N,A*15
$GPRMC,070804,A,6009.2029,N,02453.6525,E,000.0,188.0,150510,,,A*78
$IIDPT,007.2,+0.3,*41
$IIHDG,171,,,06,E*13
$IIMWV,276,R,14.7,N,A*12
$IIMWV,276,T,14.8,N,A*1B
$GPRMC,070805,A,6009.2029,N,02453.6525,E,000.0,188.0,150510,,,A*79
$IIDPT,007.2,+0.3,*41
$IIHDG,171,,,06,E*13
$IIMWV,278,R,14.7,N,A*1C
$IIMWV,276,T,14.7,N,A*14
$GPRMC,070806,A,6009.2029,N,02453.6525,E,000.0,188.0,150510,,,A*7A
$IIDPT,007.2,+0.3,*41
$IIHDG,171,,,06,E*13
$IIMWV,277,R,14.5,N,A*11
$IIMWV,278,T,14.7,N,A*1A
$GPRMC,070807,A,6009.2029,N,02453.6525,E,000.0,188.0,150510,,,A*7B
$IIDPT,007.2,+0.3,*41
$IIHDG,171,,,06,E*13
$IIMWV,277,R,14.6,N,A*12
$IIMWV,277,T,14.5,N,A*17
$GPRMC,070808,A,6009.2029,N,02453.6525,E,000.0,188.0,150510,,,A*74
$IIDPT,007.2,+0.3,*41
$IIHDG,171,,,06,E*13
$GPRMC,070809,A,6009.2029,N,02453.6525,E,000.0,188.0,150510,,,A*75
$IIMWV,278,R,14.5,N,A*1E
$IIMWV,278,T,14.5,N,A*18
$IIDPT,007.2,+0.3,*41
$IIHDG,172,,,06,E*10
$GPRMC,070810,A,6009.2029,N,02453.6525,E,000.0,188.0,150510,,,A*7D
$IIMWV,278,R,14.5,N,A*1E
$IIMWV,278,T,14.5,N,A*18
$IIDPT,007.2,+0.3,*41
$GPRMC,070811,A,6009.2029,N,02453.6525,E,000.0,188.0,150510,,,A*7C
$IIHDG,173,,,06,E*11
$IIMWV,279,R,14.8,N,A*12
$IIMWV,278,T,14.5,N,A*18
$IIDPT,007.2,+0.3,*41
$GPRMC,070812,A,6009.2029,N,02453.6525,E,000.0,188.0,150510,,,A*7F
$IIHDG,172,,,06,E*10
$IIMWV,278,R,14.8,N,A*13
$IIMWV,279,T,14.8,N,A*14
$IIDPT,007.2,+0.3,*41
$GPRMC,070813,A,6009.2029,N,02453.6525,E,000.0,188.0,150510,,,A*7E
$IIHDG,171,,,06,E*13
$IIMWV,277,R,14.8,N,A*1C
$IIMWV,278,T,14.8,N,A*15
$GPRMC,070814,A,6009.2029,N,02453.6525,E,000.0,188.0,150510,,,A*79
$IIDPT,007.2,+0.3,*41
$IIHDG,172,,,06,E*10
$IIMWV,277,R,14.5,N,A*11
$IIMWV,277,T,14.8,N,A*1A
$GPRMC,070815,A,6009.2029,N,02453.6525,E,000.3,188.0,150510,,,A*7B
$IIDPT,007.2,+0.3,*41
$IIHDG,171,,,06,E*13
$IIMWV,278,R,14.2,N,A*19
$IIMWV,277,T,14.5,N,A*17
$GPRMC,070816,A,6009.2029,N,02453.6525,E,000.0,188.0,150510,,,A*7B
$IIDPT,007.2,+0.3,*41
$IIHDG,171,,,06,E*13
$IIMWV,278,R,14.3,N,A*18
$IIMWV,278,T,14.2,N,A*1F
$GPRMC,070817,A,6009.2029,N,02453.6525,E,000.0,188.0,150510,,,A*7A
$IIDPT,007.2,+0.3,*41
$IIHDG,171,,,06,E*13
$IIMWV,276,R,14.9,N,A*1C
$IIMWV,278,T,14.3,N,A*1E
$GPRMC,070818,A,6009.2029,N,02453.6525,E,000.0,188.0,150510,,,A*75
$IIDPT,007.2,+0.3,*41
$IIHDG,171,,,06,E*13
$GPRMC,070819,A,6009.2029,N,02453.6525,E,000.0,188.0,150510,,,A*74
$IIMWV,272,R,15.5,N,A*15
$IIMWV,272,T,15.5,N,A*13
$IIDPT,007.2,+0.3,*41
$IIHDG,171,,,06,E*13
$GPRMC,070820,A,6009.2029,N,02453.6525,E,000.0,188.0,150510,,,A*7E
$IIMWV,269,R,15.3,N,A*19
$IIMWV,270,T,15.3,N,A*17
$IIDPT,007.2,+0.3,*41
$GPRMC,070821,A,6009.2029,N,02453.6525,E,000.0,188.0,150510,,,A*7F
$IIHDG,171,,,06,E*13
$IIMWV,269,R,15.4,N,A*1E
$IIMWV,269,T,15.3,N,A*1F
$IIDPT,007.2,+0.3,*41
$GPRMC,070822,A,6009.2029,N,02453.6525,E,000.0,188.0,150510,,,A*7C
$IIHDG,170,,,06,E*12
$IIMWV,268,R,15.7,N,A*1C
$IIMWV,269,T,15.4,N,A*18
$IIDPT,007.2,+0.3,*41
$GPRMC,070823,A,6009.2029,N,02453.6525,E,000.0,188.0,150510,,,A*7D
$IIHDG,171,,,06,E*13
$IIMWV,268,R,16.3,N,A*1B
$IIMWV,268,T,15.7,N,A*1A
$GPRMC,070824,A,6009.2029,N,02453.6525,E,000.0,188.0,150510,,,A*7A
$IIDPT,007.2,+0.3,*41
$IIHDG,173,,,06,E*11
$IIMWV,268,R,16.3,N,A*1B
$IIMWV,268,T,16.3,N,A*1D
$GPRMC,070825,A,6009.2029,N,02453.6525,E,000.0,188.0,150510,,,A*7B
$IIDPT,007.2,+0.3,*41
$IIHDG,173,,,06,E*11
$IIMWV,268,R,16.1,N,A*19
$IIMWV,268,T,16.3,N,A*1D
$GPRMC,070826,A,6009.2029,N,02453.6525,E,000.0,188.0,150510,,,A*78
$IIDPT,007.2,+0.3,*41
$IIHDG,174,,,06,E*16
$IIMWV,269,R,15.9,N,A*13
$IIMWV,268,T,16.1,N,A*1F
$GPRMC,070827,A,6009.2029,N,02453.6525,E,000.0,188.0,150510,,,A*79
$IIDPT,007.2,+0.3,*41
$IIHDG,173,,,06,E*11
$IIMWV,269,R,15.8,N,A*12
$IIMWV,269,T,15.9,N,A*15
$GPRMC,070828,A,6009.2029,N,02453.6525,E,000.0,188.0,150510,,,A*76
$IIDPT,007.2,+0.3,*41
$IIHDG,171,,,06,E*13
$GPRMC,070829,A,6009.2029,N,02453.6525,E,000.0,188.0,150510,,,A*77
$IIMWV,270,R,15.9,N,A*1B
$IIMWV,270,T,15.9,N,A*1D
$IIDPT,007.2,+0.3,*41
$IIHDG,170,,,06,E*12
$GPRMC,070830,A,6009.2029,N,02453.6525,E,000.0,188.0,150510,,,A*7F
$IIMWV,271,R,16.3,N,A*13
$IIMWV,270,T,15.9,N,A*1D
$IIDPT,007.2,+0.3,*41
$GPRMC,070831,A,6009.2029,N,02453.6525,E,000.0,188.0,150510,,,A*7E
$IIHDG,172,,,06,E*10
$IIMWV,270,R,15.9,N,A*1B
$IIMWV,271,T,16.3,N,A*15
$IIDPT,007.2,+0.3,*41
$GPRMC,070832,A,6009.2029,N,02453.6525,E,000.0,188.0,150510,,,A*7D
$IIHDG,172,,,06,E*10
$IIMWV,270,R,15.8,N,A*1A
$IIMWV,270,T,15.9,N,A*1D
$IIDPT,007.2,+0.3,*41
$GPRMC,070833,A,6009.2029,N,02453.6526,E,000.0,188.0,150510,,,A*7F
$GPRMC,070834,A,6009.2029,N,02453.6526,E,000.0,188.0,150510,,,A*78
$IIHDG,173,,,06,E*11
$IIMWV,270,R,15.9,N,A*1B
$IIMWV,270,T,15.8,N,A*1C
$GPRMC,070835,A,6009.2029,N,02453.6526,E,000.0,188.0,150510,,,A*79
$IIDPT,007.2,+0.3,*41
$IIHDG,176,,,06,E*14
$IIMWV,272,R,15.3,N,A*13
$IIMWV,270,T,15.5,N,A*11
$GPRMC,070836,A,6009.2029,N,02453.6526,E,000.0,188.0,150510,,,A*7A
$IIDPT,007.2,+0.3,*41
$IIHDG,172,,,06,E*10
$IIMWV,272,R,15.1,N,A*11
$IIMWV,272,T,15.3,N,A*15
$GPRMC,070837,A,6009.2029,N,02453.6526,E,000.0,188.0,150510,,,A*7B
$IIDPT,007.2,+0.3,*41
$IIHDG,171,,,06,E*13
$IIMWV,273,R,15.0,N,A*11
$IIMWV,272,T,15.1,N,A*17
$GPRMC,070838,A,6009.2029,N,02453.6526,E,000.0,188.0,150510,,,A*74
$IIDPT,007.2,+0.3,*41
$IIHDG,174,,,06,E*16
$IIMWV,273,R,14.9,N,A*19
$IIMWV,273,T,15.0,N,A*17
$GPRMC,070839,A,6009.2029,N,02453.6526,E,000.0,188.0,150510,,,A*75
$IIDPT,007.2,+0.3,*41
$IIHDG,173,,,06,E*11
$GPRMC,070840,A,6009.2029,N,02453.6526,E,000.0,188.0,150510,,,A*7B
$IIMWV,273,R,14.6,N,A*16
$IIMWV,273,T,14.6,N,A*10
$IIDPT,007.2,+0.3,*41
$IIHDG,172,,,06,E*10
$GPRMC,070841,A,6009.2029,N,02453.6526,E,000.0,188.0,150510,,,A*7A
$IIMWV,270,R,14.9,N,A*1A
$IIMWV,272,T,14.9,N,A*1E
$IIDPT,007.2,+0.3,*41
$GPRMC,070842,A,6009.2029,N,02453.6526,E,000.0,188.0,150510,,,A*79
$IIHDG,171,,,06,E*13
$IIMWV,270,R,14.8,N,A*1B
$IIMWV,270,T,14.9,N,A*1C
$IIDPT,007.2,+0.3,*41
$GPRMC,070843,A,6009.2029,N,02453.6526,E,000.0,188.0,150510,,,A*78
$IIHDG,172,,,06,E*10
$IIMWV,270,R,14.8,N,A*1B
$IIMWV,270,T,14.8,N,A*1D
$IIDPT,007.2,+0.3,*41
$GPRMC,070844,A,6009.2029,N,02453.6526,E,000.0,188.0,150510,,,A*7F
$IIHDG,172,,,06,E*10
$IIMWV,270,R,14.9,N,A*1A
$IIMWV,270,T,14.8,N,A*1D
$GPRMC,070845,A,6009.2029,N,02453.6526,E,000.0,188.0,150510,,,A*7E
$IIDPT,007.2,+0.3,*41
$IIHDG,171,,,06,E*13
$IIMWV,270,R,14.9,N,A*1A
$IIMWV,270,T,14.9,N,A*1C
$GPRMC,070846,A,6009.2029,N,02453.6526,E,000.0,188.0,150510,,,A*7D
$IIDPT,007.2,+0.3,*41
$IIHDG,171,,,06,E*13
$IIMWV,271,R,14.9,N,A*1B
$IIMWV,270,T,14.9,N,A*1C
$GPRMC,070847,A,6009.2029,N,02453.6526,E,000.0,188.0,150510,,,A*7C
$IIDPT,007.2,+0.3,*41
$IIHDG,171,,,06,E*13
$IIMWV,272,R,14.6,N,A*17
$IIMWV,271,T,14.9,N,A*1D
$GPRMC,070848,A,6009.2029,N,02453.6526,E,000.0,188.0,150510,,,A*73
$IIDPT,007.2,+0.3,*41
$IIHDG,171,,,06,E*13
$IIMWV,274,R,14.2,N,A*15
$IIMWV,272,T,14.6,N,A*11
$GPRMC,070849,A,6009.2029,N,02453.6526,E,000.0,188.0,150510,,,A*72
$IIDPT,007.2,+0.3,*41
$IIHDG,171,,,06,E*13
$GPRMC,070850,A,6009.2029,N,02453.6526,E,000.0,188.0,150510,,,A*7A
$IIMWV,276,R,14.1,N,A*14
$IIMWV,276,T,14.1,N,A*12
$IIDPT,007.2,+0.3,*41
$IIHDG,171,,,06,E*13
$GPRMC,070851,A,6009.2029,N,02453.6526,E,000.0,188.0,150510,,,A*7B
$IIMWV,278,R,13.8,N,A*14
$IIMWV,278,T,13.8,N,A*12
$IIDPT,007.2,+0.3,*41
$GPRMC,070852,A,6009.2029,N,02453.6526,E,000.0,188.0,150510,,,A*78
$IIHDG,171,,,06,E*13
$IIMWV,279,R,13.9,N,A*14
$IIMWV,278,T,13.8,N,A*12
$IIDPT,007.2,+0.3,*41
$GPRMC,070853,A,6009.2029,N,02453.6526,E,000.0,188.0,150510,,,A*79
$IIHDG,171,,,06,E*13
$IIMWV,280,R,14.3,N,A*1F
$IIMWV,279,T,13.9,N,A*12
$IIDPT,007.2,+0.3,*41
$GPRMC,070854,A,6009.2029,N,02453.6526,E,000.0,188.0,150510,,,A*7E
$GPRMC,070855,A,6009.2029,N,02453.6526,E,000.0,188.0,150510,,,A*7F
$IIHDG,171,,,06,E*13
$IIMWV,280,R,14.7,N,A*1B
$IIMWV,280,T,14.3,N,A*19
$GPRMC,070856,A,6009.2029,N,02453.6526,E,000.0,188.0,150510,,,A*7C
$IIDPT,007.2,+0.3,*41
$IIHDG,171,,,06,E*13
$IIMWV,280,R,15.5,N,A*18
$IIMWV,280,T,15.1,N,A*1A
$GPRMC,070857,A,6009.2029,N,02453.6526,E,000.0,188.0,150510,,,A*7D
$IIDPT,007.2,+0.3,*41
$IIHDG,171,,,06,E*13
$IIMWV,279,R,15.7,N,A*1C
$IIMWV,280,T,15.5,N,A*1E
$GPRMC,070858,A,6009.2029,N,02453.6526,E,000.0,188.0,150510,,,A*72
$IIDPT,007.2,+0.3,*41
$IIHDG,172,,,06,E*10
$IIMWV,276,R,15.9,N,A*1D
$IIMWV,279,T,15.7,N,A*1A
$GPRMC,070859,A,6009.2029,N,02453.6526,E,000.0,188.0,150510,,,A*73
$IIDPT,007.2,+0.3,*41
$IIHDG,172,,,06,E*10
$IIMWV,274,R,15.8,N,A*1E
$IIMWV,276,T,15.9,N,A*1B
$GPRMC,070900,A,6009.2029,N,02453.6526,E,000.0,188.0,150510,,,A*7E
$IIDPT,007.2,+0.3,*41
$IIHDG,172,,,06,E*10
$GPRMC,070901,A,6009.2029,N,02453.6526,E,000.0,188.0,150510,,,A*7F
$IIMWV,273,R,15.5,N,A*14
$IIMWV,273,T,15.5,N,A*12
$IIDPT,007.2,+0.3,*41
$IIHDG,172,,,06,E*10
$GPRMC,070902,A,6009.2029,N,02453.6526,E,000.0,188.0,150510,,,A*7C
$IIMWV,275,R,14.2,N,A*14
$IIMWV,273,T,15.0,N,A*17
$IIDPT,007.2,+0.3,*41
$GPRMC,070903,A,6009.2029,N,02453.6526,E,000.0,188.0,150510,,,A*7D
$IIHDG,172,,,06,E*10
$IIMWV,276,R,13.7,N,A*15
$IIMWV,275,T,14.2,N,A*12
$IIDPT,007.2,+0.3,*41
$GPRMC,070904,A,6009.2029,N,02453.6526,E,000.0,188.0,150510,,,A*7A
$IIHDG,172,,,06,E*10
$IIMWV,277,R,13.3,N,A*10
$IIMWV,276,T,13.7,N,A*13
$IIDPT,007.2,+0.3,*41
$GPRMC,070905,A,6009.2029,N,02453.6526,E,000.0,188.0,150510,,,A*7B
$IIHDG,172,,,06,E*10
$IIMWV,277,R,13.0,N,A*13
$IIMWV,277,T,13.3,N,A*16
$GPRMC,070906,A,6009.2029,N,02453.6526,E,000.0,188.0,150510,,,A*78
$IIDPT,007.2,+0.3,*41
$IIHDG,171,,,06,E*13
$IIMWV,276,R,12.9,N,A*1A
$IIMWV,277,T,13.0,N,A*15
$GPRMC,070907,A,6009.2029,N,02453.6526,E,000.0,188.0,150510,,,A*79
$IIDPT,007.2,+0.3,*41
$IIHDG,171,,,06,E*13
$IIMWV,275,R,12.9,N,A*19
$IIMWV,276,T,12.9,N,A*1C
$GPRMC,070908,A,6009.2029,N,02453.6526,E,000.0,188.0,150510,,,A*76
$IIDPT,007.2,+0.3,*41
$IIHDG,171,,,06,E*13
$IIMWV,275,R,13.0,N,A*11
$IIMWV,275,T,12.9,N,A*1F
$GPRMC,070909,A,6009.2029,N,02453.6526,E,000.0,188.0,150510,,,A*77
$IIDPT,007.2,+0.3,*41
$IIHDG,171,,,06,E*13
$IIMWV,275,R,13.5,N,A*14
$IIMWV,275,T,13.0,N,A*17
$GPRMC,070910,A,6009.2030,N,02453.6526,E,000.0,188.0,150510,,,A*77
$IIDPT,007.2,+0.3,*41
$IIHDG,171,,,06,E*13
$GPRMC,070911,A,6009.2030,N,02453.6526,E,000.0,188.0,150510,,,A*76
$IIMWV,273,R,13.9,N,A*1E
$IIMWV,273,T,13.9,N,A*18
$IIDPT,007.2,+0.3,*41
$IIHDG,173,,,06,E*11
$GPRMC,070912,A,6009.2030,N,02453.6526,E,000.0,188.0,150510,,,A*75
$IIMWV,269,R,14.3,N,A*18
$IIMWV,271,T,14.1,N,A*15
$IIDPT,007.2,+0.3,*41
$GPRMC,070913,A,6009.2030,N,02453.6526,E,000.0,188.0,150510,,,A*74
$IIHDG,174,,,06,E*16
$IIMWV,268,R,14.4,N,A*1E
$IIMWV,269,T,14.3,N,A*1E
$IIDPT,007.2,+0.3,*41
$GPRMC,070914,A,6009.2030,N,02453.6526,E,000.0,188.0,150510,,,A*73
$IIHDG,173,,,06,E*11
$IIMWV,267,R,15.0,N,A*14
$IIMWV,268,T,14.4,N,A*18
$IIDPT,007.2,+0.3,*41
$GPRMC,070915,A,6009.2030,N,02453.6526,E,000.0,188.0,150510,,,A*72
$IIHDG,172,,,06,E*10
$IIMWV,267,R,14.9,N,A*1C
$IIMWV,267,T,15.0,N,A*12
$GPRMC,070916,A,6009.2030,N,02453.6526,E,000.0,188.0,150510,,,A*71
$IIDPT,007.2,+0.3,*41
$IIHDG,172,,,06,E*10
$IIMWV,267,R,15.1,N,A*15
$IIMWV,267,T,14.9,N,A*1A
$GPRMC,070917,A,6009.2030,N,02453.6526,E,000.0,188.0,150510,,,A*70
$IIDPT,007.2,+0.3,*41
$IIHDG,171,,,06,E*13
$IIMWV,267,R,15.0,N,A*14
$IIMWV,267,T,15.1,N,A*13
$GPRMC,070918,A,6009.2030,N,02453.6526,E,000.0,188.0,150510,,,A*7F
$IIDPT,007.2,+0.3,*41
$IIHDG,171,,,06,E*13
$IIMWV,268,R,14.9,N,A*13
$IIMWV,267,T,15.0,N,A*12
$GPRMC,070919,A,6009.2030,N,02453.6526,E,000.0,188.0,150510,,,A*7E
$IIDPT,007.2,+0.3,*41
$IIHDG,171,,,06,E*13
$IIMWV,269,R,14.8,N,A*13
$IIMWV,268,T,14.9,N,A*15
$GPRMC,070920,A,6009.2030,N,02453.6526,E,000.0,188.0,150510,,,A*74
$IIDPT,007.2,+0.3,*41
$IIHDG,172,,,06,E*10
$IIMWV,270,R,14.8,N,A*1B
$GPRMC,070921,A,6009.2030,N,02453.6526,E,000.0,188.0,150510,,,A*75
$IIMWV,270,T,14.8,N,A*1D
$IIDPT,007.2,+0.3,*41
$IIHDG,172,,,06,E*10
$GPRMC,070922,A,6009.2030,N,02453.6526,E,000.0,188.0,150510,,,A*76
$IIMWV,273,R,15.0,N,A*11
$IIMWV,272,T,14.6,N,A*11
$IIDPT,007.2,+0.3,*41
$GPRMC,070923,A,6009.2030,N,02453.6526,E,000.0,188.0,150510,,,A*77
$IIHDG,173,,,06,E*11
$IIMWV,275,R,15.2,N,A*15
$IIMWV,273,T,15.0,N,A*17
$IIDPT,007.2,+0.3,*41
$GPRMC,070924,A,6009.2030,N,02453.6526,E,000.0,188.0,150510,,,A*70
$IIHDG,173,,,06,E*11
$IIMWV,276,R,15.5,N,A*11
$IIMWV,275,T,15.2,N,A*13
$IIDPT,007.2,+0.3,*41
$GPRMC,070925,A,6009.2030,N,02453.6526,E,000.0,188.0,150510,,,A*71
$IIHDG,172,,,06,E*10
$IIMWV,277,R,15.7,N,A*12
$IIMWV,276,T,15.5,N,A*17
$GPRMC,070926,A,6009.2030,N,02453.6526,E,000.0,188.0,150510,,,A*72
$IIDPT,007.2,+0.3,*41
$IIHDG,172,,,06,E*10
$IIMWV,278,R,16.3,N,A*1A
$IIMWV,277,T,15.7,N,A*14
$GPRMC,070927,A,6009.2030,N,02453.6526,E,000.0,188.0,150510,,,A*73
$IIDPT,007.2,+0.3,*41
$IIHDG,172,,,06,E*10
$IIMWV,278,R,17.0,N,A*18
$IIMWV,278,T,16.3,N,A*1C
$GPRMC,070928,A,6009.2030,N,02453.6526,E,000.0,188.0,150510,,,A*7C
$IIDPT,007.2,+0.3,*41
$IIHDG,172,,,06,E*10
$IIMWV,279,R,17.1,N,A*18
$IIMWV,278,T,17.0,N,A*1E
$GPRMC,070929,A,6009.2030,N,02453.6526,E,000.0,188.0,150510,,,A*7D
$IIDPT,007.2,+0.3,*41
$IIHDG,171,,,06,E*13
$IIMWV,279,R,17.0,N,A*19
$IIMWV,279,T,17.1,N,A*1E
$GPRMC,070930,A,6009.2030,N,02453.6526,E,000.0,188.0,150510,,,A*75
$IIDPT,007.2,+0.3,*41
$IIHDG,171,,,06,E*13
$GPRMC,070931,A,6009.2030,N,02453.6526,E,000.0,188.0,150510,,,A*74
$IIMWV,280,R,17.2,N,A*1D
$IIMWV,280,T,17.2,N,A*1B
$IIDPT,007.2,+0.3,*41
$IIHDG,172,,,06,E*10
$GPRMC,070932,A,6009.2030,N,02453.6524,E,000.4,188.0,150510,,,A*71
$IIMWV,279,R,17.6,N,A*1F
$IIMWV,280,T,17.2,N,A*1B
$IIDPT,007.2,+0.3,*41
$GPRMC,070933,A,6009.2030,N,02453.6524,E,000.0,188.0,150510,,,A*74
$IIHDG,174,,,06,E*16
$IIMWV,279,R,17.5,N,A*1C
$IIMWV,279,T,17.6,N,A*19
$IIDPT,007.2,+0.3,*41
$GPRMC,070934,A,6009.2030,N,02453.6524,E,000.0,188.0,150510,,,A*73
$IIHDG,172,,,06,E*10
$IIMWV,277,R,17.3,N,A*14
$IIMWV,279,T,17.5,N,A*1A
$IIDPT,007.2,+0.3,*41
$GPRMC,070935,A,6009.2030,N,02453.6524,E,000.0,188.0,150510,,,A*72
$IIHDG,171,,,06,E*13
$IIMWV,275,R,17.0,N,A*15
$IIMWV,277,T,17.3,N,A*12
$GPRMC,070936,A,6009.2032,N,02453.6524,E,000.7,188.0,150510,,,A*74
$IIDPT,007.2,+0.3,*41
$IIHDG,173,,,06,E*11
$IIMWV,273,R,16.8,N,A*1A
$IIMWV,275,T,17.0,N,A*13
$GPRMC,070937,A,6009.2032,N,02453.6524,E,000.0,188.0,150510,,,A*72
$IIDPT,007.2,+0.3,*41
$IIHDG,173,,,06,E*11
$IIMWV,272,R,16.5,N,A*16
$IIMWV,273,T,16.8,N,A*1C
$GPRMC,070938,A,6009.2032,N,02453.6524,E,000.0,188.0,150510,,,A*7D
$IIDPT,007.2,+0.3,*41
$IIHDG,172,,,06,E*10
$IIMWV,273,R,16.2,N,A*10
$IIMWV,272,T,16.5,N,A*10
$GPRMC,070939,A,6009.2032,N,02453.6524,E,000.0,188.0,150510,,,A*7C
$IIDPT,007.2,+0.3,*41
$IIHDG,172,,,06,E*10
$IIMWV,276,R,16.0,N,A*17
$IIMWV,273,T,16.2,N,A*16
$GPRMC,070940,A,6009.2032,N,02453.6524,E,000.0,188.0,150510,,,A*72
$IIDPT,007.2,+0.3,*41
$IIHDG,172,,,06,E*10
$GPRMC,070941,A,6009.2032,N,02453.6524,E,000.0,188.0,150510,,,A*73
$IIMWV,276,R,16.1,N,A*16
$IIMWV,276,T,16.1,N,A*10
$IIDPT,007.2,+0.3,*41
$IIHDG,173,,,06,E*11
$GPRMC,070942,A,6009.2032,N,02453.6524,E,000.0,188.0,150510,,,A*70
$IIMWV,277,R,16.3,N,A*15
$IIMWV,277,T,16.1,N,A*11
$IIDPT,007.2,+0.3,*41
$GPRMC,070943,A,6009.2032,N,02453.6524,E,000.0,188.0,150510,,,A*71
$IIHDG,173,,,06,E*11
$IIMWV,276,R,16.8,N,A*1F
$IIMWV,277,T,16.3,N,A*13
$IIDPT,007.2,+0.3,*41
$GPRMC,070944,A,6009.2032,N,02453.6524,E,000.0,188.0,150510,,,A*76
$IIHDG,173,,,06,E*11
$IIMWV,276,R,17.3,N,A*15
$IIMWV,276,T,16.8,N,A*19
$IIDPT,007.2,+0.3,*41
$GPRMC,070945,A,6009.2032,N,02453.6524,E,000.0,188.0,150510,,,A*77
$IIHDG,173,,,06,E*11
$IIMWV,276,R,18.2,N,A*1B
$IIMWV,276,T,17.3,N,A*13
$GPRMC,070946,A,6009.2032,N,02453.6524,E,000.0,188.0,150510,,,A*74
$IIDPT,007.2,+0.3,*41
$IIHDG,172,,,06,E*10
$IIMWV,276,R,18.6,N,A*1F
$IIMWV,276,T,18.2,N,A*1D
$GPRMC,070947,A,6009.2032,N,02453.6524,E,000.0,188.0,150510,,,A*75
$IIDPT,007.2,+0.3,*41
$IIHDG,171,,,06,E*13
$IIMWV,276,R,18.8,N,A*11
$IIMWV,276,T,18.6,N,A*19
$GPRMC,070948,A,6009.2032,N,02453.6524,E,000.0,188.0,150510,,,A*7A
$IIDPT,007.2,+0.3,*41
$IIHDG,171,,,06,E*13
$IIMWV,276,R,19.0,N,A*18
$IIMWV,276,T,18.8,N,A*17
$GPRMC,070949,A,6009.2032,N,02453.6524,E,000.0,188.0,150510,,,A*7B
$IIDPT,007.2,+0.3,*41
$IIHDG,172,,,06,E*10
$IIMWV,275,R,18.9,N,A*13
$IIMWV,276,T,19.0,N,A*1E
$GPRMC,070950,A,6009.2032,N,02453.6524,E,000.0,188.0,150510,,,A*73
$IIDPT,007.2,+0.3,*41
$IIHDG,173,,,06,E*11
$GPRMC,070951,A,6009.2032,N,02453.6524,E,000.0,188.0,150510,,,A*72
$IIMWV,273,R,18.6,N,A*1A
$IIMWV,273,T,18.6,N,A*1C
$IIDPT,007.2,+0.3,*41
$IIHDG,172,,,06,E*10
$GPRMC,070952,A,6009.2032,N,02453.6524,E,000.0,188.0,150510,,,A*71
$IIMWV,274,R,17.8,N,A*1C
$IIMWV,273,T,18.1,N,A*1B
$IIDPT,007.2,+0.3,*41
$GPRMC,070953,A,6009.2033,N,02453.6524,E,000.0,188.0,150510,,,A*71
$IIHDG,172,,,06,E*10
$IIMWV,274,R,17.7,N,A*13
$IIMWV,274,T,17.8,N,A*1A
$IIDPT,007.2,+0.3,*41
$GPRMC,070954,A,6009.2033,N,02453.6524,E,000.0,188.0,150510,,,A*76
$IIHDG,172,,,06,E*10
$IIMWV,273,R,17.7,N,A*14
$IIMWV,274,T,17.7,N,A*15
$IIDPT,007.2,+0.3,*41
$GPRMC,070955,A,6009.2032,N,02453.6524,E,000.0,188.0,150510,,,A*76
$IIHDG,172,,,06,E*10
$IIMWV,271,R,17.2,N,A*13
$IIMWV,273,T,17.7,N,A*12
$GPRMC,070956,A,6009.2032,N,02453.6524,E,000.0,188.0,150510,,,A*75
$IIDPT,007.2,+0.3,*41
$IIHDG,172,,,06,E*10
$IIMWV,271,R,16.7,N,A*17
$IIMWV,271,T,17.2,N,A*15
$GPRMC,070957,A,6009.2032,N,02453.6524,E,000.0,188.0,150510,,,A*74
$IIDPT,007.2,+0.3,*41
$IIHDG,172,,,06,E*10
$IIMWV,273,R,16.3,N,A*11
$IIMWV,271,T,16.7,N,A*11
$GPRMC,070958,A,6009.2033,N,02453.6524,E,000.0,188.0,150510,,,A*7A
$IIDPT,007.2,+0.3,*41
$IIHDG,173,,,06,E*11
$IIMWV,275,R,16.0,N,A*14
$IIMWV,273,T,16.3,N,A*17
$GPRMC,070959,A,6009.2033,N,02453.6524,E,000.0,188.0,150510,,,A*7B
$IIDPT,007.2,+0.3,*41
$IIHDG,173,,,06,E*11
$IIMWV,276,R,16.1,N,A*16
$IIMWV,275,T,16.0,N,A*12
$GPRMC,071000,A,6009.2033,N,02453.6524,E,000.0,188.0,150510,,,A*7F
$IIDPT,007.2,+0.3,*41
$IIHDG,172,,,06,E*10
$GPRMC,071001,A,6009.2033,N,02453.6524,E,000.0,188.0,150510,,,A*7E
$IIMWV,278,R,16.1,N,A*18
$IIMWV,278,T,16.1,N,A*1E
$IIDPT,007.2,+0.3,*41
$IIHDG,171,,,06,E*13
$GPRMC,071002,A,6009.2033,N,02453.6524,E,000.0,188.0,150510,,,A*7D
$IIMWV,279,R,16.5,N,A*1D
$IIMWV,279,T,16.4,N,A*1A
$IIDPT,007.2,+0.3,*41
$GPRMC,071003,A,6009.2033,N,02453.6524,E,000.0,188.0,150510,,,A*7C
$IIHDG,171,,,06,E*13
$IIMWV,280,R,16.5,N,A*1B
$IIMWV,279,T,16.5,N,A*1B
$IIDPT,007.2,+0.3,*41
$GPRMC,071004,A,6009.2033,N,02453.6524,E,000.0,188.0,150510,,,A*7B
$IIHDG,171,,,06,E*13
$IIMWV,280,R,16.7,N,A*19
$IIMWV,280,T,16.5,N,A*1D
$IIDPT,007.2,+0.3,*41
$GPRMC,071005,A,6009.2033,N,02453.6524,E,000.0,188.0,150510,,,A*7A
$IIHDG,171,,,06,E*13
$IIMWV,280,R,16.9,N,A*17
$IIMWV,280,T,16.7,N,A*1F
$GPRMC,071006,A,6009.2033,N,02453.6524,E,000.0,188.0,150510,,,A*79
$IIDPT,007.2,+0.3,*41
$IIHDG,171,,,06,E*13
$IIMWV,279,R,17.2,N,A*1B
$IIMWV,280,T,16.9,N,A*11
$GPRMC,071007,A,6009.2033,N,02453.6524,E,000.0,188.0,150510,,,A*78
$IIDPT,007.2,+0.3,*41
$IIHDG,171,,,06,E*13
$IIMWV,279,R,17.2,N,A*1B
$IIMWV,279,T,17.2,N,A*1D
$GPRMC,071008,A,6009.2033,N,02453.6524,E,000.0,188.0,150510,,,A*77
$IIDPT,007.2,+0.3,*41
$IIHDG,172,,,06,E*10
$IIMWV,279,R,17.1,N,A*18
$IIMWV,279,T,17.2,N,A*1D
$GPRMC,071009,A,6009.2033,N,02453.6524,E,000.0,188.0,150510,,,A*76
$IIDPT,007.2,+0.3,*41
$IIHDG,172,,,06,E*10
$IIMWV,279,R,17.1,N,A*18
$IIMWV,279,T,17.1,N,A*1E
$GPRMC,071010,A,6009.2033,N,02453.6524,E,000.0,188.0,150510,,,A*7E
$IIDPT,007.2,+0.3,*41
$IIHDG,172,,,06,E*10
$IIMWV,279,R,16.9,N,A*11
$GPRMC,071011,A,6009.2033,N,02453.6524,E,000.0,188.0,150510,,,A*7F
$IIMWV,279,T,16.9,N,A*17
$IIDPT,007.2,+0.3,*41
$IIHDG,173,,,06,E*11
$GPRMC,071012,A,6009.2033,N,02453.6524,E,000.0,188.0,150510,,,A*7C
$IIMWV,276,R,16.4,N,A*13
$IIMWV,278,T,16.6,N,A*19
$IIDPT,007.2,+0.3,*41
$GPRMC,071013,A,6009.2033,N,02453.6525,E,000.0,188.0,150510,,,A*7C
$IIHDG,172,,,06,E*10
$IIMWV,276,R,16.1,N,A*16
$IIMWV,276,T,16.4,N,A*15
$IIDPT,007.2,+0.3,*41
$GPRMC,071014,A,6009.2033,N,02453.6525,E,000.0,188.0,150510,,,A*7B
$IIHDG,172,,,06,E*10
$IIMWV,277,R,16.3,N,A*15
$IIMWV,276,T,16.1,N,A*10
$IIDPT,007.2,+0.3,*41
$GPRMC,071015,A,6009.2033,N,02453.6525,E,000.0,188.0,150510,,,A*7A
$IIHDG,175,,,06,E*17
$IIMWV,276,R,16.4,N,A*13
$IIMWV,277,T,16.3,N,A*13
$GPRMC,071016,A,6009.2033,N,02453.6525,E,000.0,188.0,150510,,,A*79
$IIDPT,007.2,+0.3,*41
$IIHDG,176,,,06,E*14
$IIMWV,276,R,16.3,N,A*14
$IIMWV,276,T,16.4,N,A*15
$GPRMC,071017,A,6009.2033,N,02453.6525,E,000.0,188.0,150510,,,A*78
$IIDPT,007.2,+0.3,*41
$IIHDG,175,,,06,E*17
$IIMWV,277,R,16.4,N,A*12
$IIMWV,276,T,16.3,N,A*12
$GPRMC,071018,A,6009.2033,N,02453.6525,E,000.0,188.0,150510,,,A*77
$IIDPT,007.2,+0.3,*41
$IIHDG,174,,,06,E*16
$IIMWV,277,R,16.1,N,A*17
$IIMWV,277,T,16.4,N,A*14
$GPRMC,071019,A,6009.2033,N,02453.6525,E,000.0,188.0,150510,,,A*76
$IIDPT,007.2,+0.3,*41
$IIHDG,173,,,06,E*11
$IIMWV,277,R,16.1,N,A*17
$IIMWV,277,T,16.1,N,A*11
$GPRMC,071020,A,6009.2033,N,02453.6525,E,000.0,188.0,150510,,,A*7C
$IIDPT,007.2,+0.3,*41
$IIHDG,172,,,06,E*10
$GPRMC,071021,A,6009.2033,N,02453.6525,E,000.0,188.0,150510,,,A*7D
$IIMWV,278,R,16.2,N,A*1B
$IIMWV,278,T,16.2,N,A*1D
$IIDPT,007.2,+0.3,*41
$IIHDG,172,,,06,E*10
$GPRMC,071022,A,6009.2033,N,02453.6525,E,000.0,188.0,150510,,,A*7E
$IIMWV,279,R,17.0,N,A*19
$IIMWV,278,T,16.8,N,A*17
$IIDPT,007.2,+0.3,*41
$GPRMC,071023,A,6009.2033,N,02453.6524,E,000.1,188.0,150510,,,A*7F
$IIHDG,172,,,06,E*10
$IIMWV,280,R,16.8,N,A*16
$IIMWV,279,T,17.0,N,A*1F
$IIDPT,007.2,+0.3,*41
$GPRMC,071024,A,6009.2033,N,02453.6524,E,000.0,188.0,150510,,,A*79
$IIHDG,171,,,06,E*13
$IIMWV,280,R,17.3,N,A*1C
$IIMWV,280,T,16.8,N,A*10
$IIDPT,007.2,+0.3,*41
$GPRMC,071025,A,6009.2033,N,02453.6524,E,000.0,188.0,150510,,,A*78
$IIHDG,172,,,06,E*10
$IIMWV,280,R,17.9,N,A*16
$IIMWV,280,T,17.3,N,A*1A
$GPRMC,071026,A,6009.2033,N,02453.6524,E,000.0,188.0,150510,,,A*7B
$IIDPT,007.2,+0.3,*41
$IIHDG,172,,,06,E*10
$IIMWV,280,R,17.9,N,A*16
$IIMWV,280,T,17.9,N,A*10
$GPRMC,071027,A,6009.2033,N,02453.6524,E,000.0,188.0,150510,,,A*7A
$IIDPT,007.2,+0.3,*41
$IIHDG,172,,,06,E*10
$IIMWV,279,R,17.4,N,A*1D
$IIMWV,280,T,17.9,N,A*10
$GPRMC,071028,A,6009.2033,N,02453.6524,E,000.0,188.0,150510,,,A*75
$IIDPT,007.2,+0.3,*41
$IIHDG,172,,,06,E*10
$IIMWV,279,R,17.5,N,A*1C
$IIMWV,279,T,17.4,N,A*1B
$GPRMC,071029,A,6009.2033,N,02453.6524,E,000.0,188.0,150510,,,A*74
$IIDPT,007.2,+0.3,*41
$IIHDG,172,,,06,E*10
$IIMWV,278,R,17.3,N,A*1B
$IIMWV,279,T,17.5,N,A*1A
$GPRMC,071030,A,6009.2033,N,02453.6524,E,000.0,188.0,150510,,,A*7C
$IIDPT,007.2,+0.3,*41
$IIHDG,171,,,06,E*13
$GPRMC,071031,A,6009.2033,N,02453.6524,E,000.0,188.0,150510,,,A*7D
$IIMWV,278,R,17.1,N,A*19
$IIMWV,278,T,17.1,N,A*1F
$IIDPT,007.2,+0.3,*41
$IIHDG,172,,,06,E*10
$GPRMC,071032,A,6009.2033,N,02453.6524,E,000.0,188.0,150510,,,A*7E
$IIMWV,276,R,16.3,N,A*14
$IIMWV,277,T,16.6,N,A*16
$IIDPT,007.2,+0.3,*41
$GPRMC,071033,A,6009.2033,N,02453.6524,E,000.0,188.0,150510,,,A*7F
$IIHDG,172,,,06,E*10
$IIMWV,274,R,15.8,N,A*1E
$IIMWV,276,T,16.3,N,A*12
$IIDPT,007.2,+0.3,*41
$GPRMC,071034,A,6009.2032,N,02453.6524,E,000.0,188.0,150510,,,A*79
$IIHDG,172,,,06,E*10
$IIMWV,274,R,15.7,N,A*11
$IIMWV,274,T,15.8,N,A*18
$IIDPT,007.2,+0.3,*41
$GPRMC,071035,A,6009.2032,N,02453.6524,E,000.0,188.0,150510,,,A*78
$IIHDG,172,,,06,E*10
$IIMWV,274,R,15.7,N,A*11
$IIMWV,274,T,15.7,N,A*17
$GPRMC,071036,A,6009.2032,N,02453.6524,E,000.0,188.0,150510,,,A*7B
$IIDPT,007.2,+0.3,*41
$IIHDG,172,,,06,E*10
$IIMWV,274,R,15.4,N,A*12
$IIMWV,274,T,15.7,N,A*17
$GPRMC,071037,A,6009.2032,N,02453.6524,E,000.0,188.0,150510,,,A*7A
$IIDPT,007.2,+0.3,*41
$IIHDG,171,,,06,E*13
$IIMWV,274,R,15.1,N,A*17
$IIMWV,274,T,15.4,N,A*14
$GPRMC,071038,A,6009.2032,N,02453.6524,E,000.0,188.0,150510,,,A*75
$IIDPT,007.2,+0.3,*41
$IIHDG,172,,,06,E*10
$IIMWV,275,R,14.8,N,A*1E
$IIMWV,274,T,15.1,N,A*11
$GPRMC,071039,A,6009.2032,N,02453.6524,E,000.0,188.0,150510,,,A*74
$IIDPT,007.2,+0.3,*41
$IIHDG,172,,,06,E*10
$IIMWV,275,R,14.7,N,A*11
$IIMWV,275,T,14.8,N,A*18
$GPRMC,071040,A,6009.2032,N,02453.6524,E,000.0,188.0,150510,,,A*7A
$IIDPT,007.2,+0.3,*41
$IIHDG,171,,,06,E*13
$IIMWV,276,R,14.5,N,A*10
$GPRMC,071041,A,6009.2032,N,02453.6524,E,000.0,188.0,150510,,,A*7B
$IIMWV,276,T,14.5,N,A*16
$IIDPT,007.2,+0.3,*41
$IIHDG,173,,,06,E*11
$GPRMC,071042,A,6009.2032,N,02453.6524,E,000.0,188.0,150510,,,A*78
$IIMWV,276,R,14.6,N,A*13
$IIMWV,276,T,14.4,N,A*17
$IIDPT,007.2,+0.3,*41
$GPRMC,071043,A,6009.2032,N,02453.6524,E,000.0,188.0,150510,,,A*79
$IIHDG,174,,,06,E*16
$IIMWV,276,R,14.9,N,A*1C
$IIMWV,276,T,14.6,N,A*15
$IIDPT,007.2,+0.3,*41
$GPRMC,071044,A,6009.2032,N,02453.6524,E,000.0,188.0,150510,,,A*7E
$IIHDG,174,,,06,E*16
$IIMWV,276,R,15.3,N,A*17
$IIMWV,276,T,14.9,N,A*1A
$IIDPT,007.2,+0.3,*41
$GPRMC,071045,A,6009.2032,N,02453.6524,E,000.0,188.0,150510,,,A*7F
$IIHDG,173,,,06,E*11
$IIMWV,276,R,15.4,N,A*10
$IIMWV,276,T,15.3,N,A*11
$GPRMC,071046,A,6009.2032,N,02453.6524,E,000.0,188.0,150510,,,A*7C
$IIDPT,007.2,+0.3,*41
$IIHDG,172,,,06,E*10
$IIMWV,276,R,15.2,N,A*16
$IIMWV,276,T,15.4,N,A*16
$GPRMC,071047,A,6009.2032,N,02453.6524,E,000.0,188.0,150510,,,A*7D
$IIDPT,007.2,+0.3,*41
$IIHDG,172,,,06,E*10
$IIMWV,276,R,14.9,N,A*1C
$IIMWV,276,T,15.2,N,A*10
$GPRMC,071048,A,6009.2032,N,02453.6524,E,000.0,188.0,150510,,,A*72
$IIDPT,007.2,+0.3,*41
$IIHDG,172,,,06,E*10
$IIMWV,276,R,14.5,N,A*10
$IIMWV,276,T,14.9,N,A*1A
$GPRMC,071049,A,6009.2032,N,02453.6524,E,000.0,188.0,150510,,,A*73
$IIDPT,007.2,+0.3,*41
$IIHDG,172,,,06,E*10
$IIMWV,275,R,14.2,N,A*14
$IIMWV,276,T,14.5,N,A*16
$GPRMC,071050,A,6009.2032,N,02453.6524,E,000.0,188.0,150510,,,A*7B
$IIDPT,007.2,+0.3,*41
$IIHDG,172,,,06,E*10
$GPRMC,071051,A,6009.2032,N,02453.6524,E,000.0,188.0,150510,,,A*7A
$IIMWV,274,R,13.9,N,A*19
$IIMWV,274,T,13.9,N,A*1F
$IIDPT,007.2,+0.3,*41
$IIHDG,171,,,06,E*13
$GPRMC,071052,A,6009.2032,N,02453.6524,E,000.0,188.0,150510,,,A*79
$IIMWV,273,R,13.9,N,A*1E
$IIMWV,273,T,13.8,N,A*19
$IIDPT,007.2,+0.3,*41
$GPRMC,071053,A,6009.2032,N,02453.6524,E,000.0,188.0,150510,,,A*78
$IIHDG,171,,,06,E*13
$IIMWV,273,R,14.1,N,A*11
$IIMWV,273,T,13.9,N,A*18
$IIDPT,007.2,+0.3,*41
$GPRMC,071054,A,6009.2032,N,02453.6524,E,000.0,188.0,150510,,,A*7F
$IIHDG,171,,,06,E*13
$IIMWV,274,R,14.3,N,A*14
$IIMWV,273,T,14.1,N,A*17
$IIDPT,007.2,+0.3,*41
$GPRMC,071055,A,6009.2032,N,02453.6524,E,000.0,188.0,150510,,,A*7E
$GPRMC,071056,A,6009.2032,N,02453.6524,E,000.0,188.0,150510,,,A*7D
$IIHDG,171,,,06,E*13
$IIMWV,276,R,14.3,N,A*16
$IIMWV,274,T,14.3,N,A*12
$GPRMC,071057,A,6009.2032,N,02453.6524,E,000.0,188.0,150510,,,A*7C
$IIDPT,007.2,+0.3,*41
$IIHDG,172,,,06,E*10
$IIMWV,278,R,15.1,N,A*1B
$IIMWV,276,T,14.6,N,A*15
$GPRMC,071058,A,6009.2032,N,02453.6524,E,000.0,188.0,150510,,,A*73
$IIDPT,007.2,+0.3,*41
$IIHDG,173,,,06,E*11
$IIMWV,277,R,16.2,N,A*14
$IIMWV,278,T,15.1,N,A*1D
$GPRMC,071059,A,6009.2032,N,02453.6524,E,000.0,188.0,150510,,,A*72
$IIDPT,007.2,+0.3,*41
$IIHDG,173,,,06,E*11
$IIMWV,276,R,17.6,N,A*10
$IIMWV,277,T,16.2,N,A*12
$GPRMC,071100,A,6009.2032,N,02453.6524,E,000.0,188.0,150510,,,A*7F
$IIDPT,007.2,+0.3,*41
$IIHDG,173,,,06,E*11
$IIMWV,276,R,18.5,N,A*1C
$IIMWV,276,T,17.6,N,A*16
$GPRMC,071101,A,6009.2032,N,02453.6524,E,000.0,188.0,150510,,,A*7E
$IIDPT,007.2,+0.3,*41
$IIHDG,173,,,06,E*11
$GPRMC,071102,A,6009.2032,N,02453.6524,E,000.0,188.0,150510,,,A*7D
$IIMWV,276,R,19.0,N,A*18
$IIMWV,276,T,19.0,N,A*1E
$IIDPT,007.2,+0.3,*41
$IIHDG,173,,,06,E*11
$GPRMC,071103,A,6009.2032,N,02453.6524,E,000.0,188.0,150510,,,A*7C
$IIMWV,276,R,19.0,N,A*18
$IIMWV,276,T,19.2,N,A*1C
$IIDPT,007.2,+0.3,*41
$GPRMC,071104,A,6009.2032,N,02453.6524,E,000.0,188.0,150510,,,A*7B
$IIHDG,171,,,06,E*13
$IIMWV,275,R,19.1,N,A*1A
$IIMWV,276,T,19.0,N,A*1E
$IIDPT,007.2,+0.3,*41
$GPRMC,071105,A,6009.2032,N,02453.6524,E,000.0,188.0,150510,,,A*7A
$IIHDG,171,,,06,E*13
$IIMWV,273,R,18.8,N,A*14
$IIMWV,275,T,19.1,N,A*1C
$IIDPT,007.2,+0.3,*41
$GPRMC,071106,A,6009.2032,N,02453.6524,E,000.0,188.0,150510,,,A*79
$IIHDG,172,,,06,E*10
$IIMWV,273,R,18.7,N,A*1B
$IIMWV,273,T,18.8,N,A*12
$GPRMC,071107,A,6009.2032,N,02453.6524,E,000.0,188.0,150510,,,A*78
$IIDPT,007.2,+0.3,*41
$IIHDG,172,,,06,E*10
$IIMWV,270,R,18.0,N,A*1F
$IIMWV,273,T,18.7,N,A*1D
$GPRMC,071108,A,6009.2032,N,02453.6524,E,000.0,188.0,150510,,,A*77
$IIDPT,007.2,+0.3,*41
$IIHDG,172,,,06,E*10
$IIMWV,271,R,17.5,N,A*14
$IIMWV,270,T,18.0,N,A*19
$GPRMC,071109,A,6009.2032,N,02453.6524,E,000.0,188.0,150510,,,A*76
$IIDPT,007.2,+0.3,*41
$IIHDG,172,,,06,E*10
$IIMWV,272,R,17.1,N,A*13
$IIMWV,271,T,17.5,N,A*12
$GPRMC,071110,A,6009.2032,N,02453.6524,E,000.0,188.0,150510,,,A*7E
$IIDPT,007.2,+0.3,*41
$IIHDG,173,,,06,E*11
$IIMWV,273,R,17.2,N,A*11
$IIMWV,272,T,17.1,N,A*15
$GPRMC,071111,A,6009.2033,N,02453.6524,E,000.0,188.0,150510,,,A*7E
$IIDPT,007.2,+0.3,*41
$IIHDG,173,,,06,E*11
$GPRMC,071112,A,6009.2033,N,02453.6524,E,000.0,188.0,150510,,,A*7D
$IIMWV,274,R,17.9,N,A*1D
$IIMWV,274,T,17.9,N,A*1B
$IIDPT,007.2,+0.3,*41
$IIHDG,172,,,06,E*10
$GPRMC,071113,A,6009.2033,N,02453.6524,E,000.0,188.0,150510,,,A*7C
$IIMWV,273,R,18.3,N,A*1F
$IIMWV,274,T,18.1,N,A*1C
$IIDPT,007.2,+0.3,*41
$GPRMC,071114,A,6009.2033,N,02453.6524,E,000.0,188.0,150510,,,A*7B
$IIHDG,172,,,06,E*10
$IIMWV,273,R,18.3,N,A*1F
$IIMWV,273,T,18.3,N,A*19
$IIDPT,007.2,+0.3,*41
$GPRMC,071115,A,6009.2033,N,02453.6524,E,000.0,188.0,150510,,,A*7A
$IIHDG,172,,,06,E*10
$IIMWV,272,R,18.2,N,A*1F
$IIMWV,273,T,18.3,N,A*19
$IIDPT,007.2,+0.3,*41
$GPRMC,071116,A,6009.2033,N,02453.6524,E,000.0,188.0,150510,,,A*79
$IIHDG,173,,,06,E*11
$IIMWV,273,R,17.7,N,A*14
$IIMWV,272,T,18.2,N,A*19
$GPRMC,071117,A,6009.2033,N,02453.6524,E,000.0,188.0,150510,,,A*78
$IIDPT,007.2,+0.3,*41
$IIHDG,173,,,06,E*11
$IIMWV,274,R,17.0,N,A*14
$IIMWV,273,T,17.7,N,A*12
$GPRMC,071118,A,6009.2033,N,02453.6524,E,000.0,188.0,150510,,,A*77
$IIDPT,007.2,+0.3,*41
$IIHDG,173,,,06,E*11
$IIMWV,276,R,16.3,N,A*14
$IIMWV,274,T,17.0,N,A*12
$GPRMC,071119,A,6009.2033,N,02453.6524,E,000.0,188.0,150510,,,A*76
$IIDPT,007.2,+0.3,*41
$IIHDG,172,,,06,E*10
$IIMWV,276,R,16.0,N,A*17
$IIMWV,276,T,16.3,N,A*12
$GPRMC,071120,A,6009.2032,N,02453.6524,E,000.0,188.0,150510,,,A*7D
$IIDPT,007.2,+0.3,*41
$IIHDG,173,,,06,E*11
$IIMWV,276,R,15.9,N,A*1D
$IIMWV,276,T,16.0,N,A*11
$GPRMC,071121,A,6009.2032,N,02453.6524,E,000.0,188.0,150510,,,A*7C
$IIDPT,007.2,+0.3,*41
$IIHDG,173,,,06,E*11
$GPRMC,071122,A,6009.2032,N,02453.6524,E,000.0,188.0,150510,,,A*7F
$IIMWV,276,R,15.5,N,A*11
$IIMWV,276,T,15.5,N,A*17
$IIDPT,007.2,+0.3,*41
$IIHDG,172,,,06,E*10
$GPRMC,071123,A,6009.2032,N,02453.6523,E,000.4,188.0,150510,,,A*7D
$IIMWV,278,R,15.3,N,A*19
$IIMWV,278,T,15.5,N,A*19
$IIDPT,007.2,+0.3,*41
$GPRMC,071124,A,6009.2031,N,02453.6523,E,000.0,188.0,150510,,,A*7D
$IIHDG,171,,,06,E*13
$IIMWV,279,R,15.1,N,A*1A
$IIMWV,278,T,15.3,N,A*1F
$IIDPT,007.2,+0.3,*41
$GPRMC,071125,A,6009.2031,N,02453.6523,E,000.0,188.0,150510,,,A*7C
$IIHDG,170,,,06,E*12
$IIMWV,279,R,14.5,N,A*1F
$IIMWV,279,T,15.1,N,A*1C
$IIDPT,007.2,+0.3,*41
$GPRMC,071126,A,6009.2031,N,02453.6523,E,000.0,188.0,150510,,,A*7F
$IIHDG,171,,,06,E*13
$IIMWV,280,R,14.4,N,A*18
$IIMWV,279,T,14.5,N,A*19
$GPRMC,071127,A,6009.2031,N,02453.6523,E,000.0,188.0,150510,,,A*7E
$IIDPT,007.2,+0.3,*41
$IIHDG,171,,,06,E*13
$IIMWV,281,R,14.3,N,A*1E
$IIMWV,280,T,14.4,N,A*1E
$GPRMC,071128,A,6009.2031,N,02453.6523,E,000.0,188.0,150510,,,A*71
$IIDPT,007.2,+0.3,*41
$IIHDG,174,,,06,E*16
$IIMWV,281,R,14.1,N,A*1C
$IIMWV,281,T,14.3,N,A*18
$GPRMC,071129,A,6009.2031,N,02453.6523,E,000.0,188.0,150510,,,A*70
$IIDPT,007.2,+0.3,*41
$IIHDG,175,,,06,E*17
$IIMWV,280,R,14.1,N,A*1D
$IIMWV,281,T,14.1,N,A*1A
$GPRMC,071130,A,6009.2031,N,02453.6523,E,000.0,188.0,150510,,,A*78
$IIDPT,007.2,+0.3,*41
$IIHDG,174,,,06,E*16
$IIMWV,278,R,14.5,N,A*1E
$IIMWV,280,T,14.1,N,A*1B
$GPRMC,071131,A,6009.2031,N,02453.6523,E,000.0,188.0,150510,,,A*79
$IIDPT,007.2,+0.3,*41
$IIHDG,172,,,06,E*10
$GPRMC,071132,A,6009.2031,N,02453.6523,E,000.0,188.0,150510,,,A*7A
$IIMWV,276,R,15.0,N,A*14
$IIMWV,276,T,15.0,N,A*12
$IIDPT,007.2,+0.3,*41
$IIHDG,172,,,06,E*10
$GPRMC,071133,A,6009.2031,N,02453.6523,E,000.0,188.0,150510,,,A*7B
$IIMWV,277,R,14.6,N,A*12
$IIMWV,276,T,15.0,N,A*12
$IIDPT,007.2,+0.3,*41
$GPRMC,071134,A,6009.2031,N,02453.6523,E,000.0,188.0,150510,,,A*7C
$IIHDG,171,,,06,E*13
$IIMWV,277,R,14.3,N,A*17
$IIMWV,277,T,14.6,N,A*14
$IIDPT,007.2,+0.3,*41
$GPRMC,071135,A,6009.2031,N,02453.6523,E,000.0,188.0,150510,,,A*7D
$IIHDG,171,,,06,E*13
$IIMWV,277,R,14.1,N,A*15
$IIMWV,277,T,14.3,N,A*11
$IIDPT,007.2,+0.3,*41
$GPRMC,071136,A,6009.2031,N,02453.6523,E,000.0,188.0,150510,,,A*7E
$IIHDG,172,,,06,E*10
$IIMWV,277,R,13.9,N,A*1A
$IIMWV,277,T,14.1,N,A*13
$GPRMC,071137,A,6009.2031,N,02453.6523,E,000.0,188.0,150510,,,A*7F
$IIDPT,007.2,+0.3,*41
$IIHDG,173,,,06,E*11
$IIMWV,276,R,13.7,N,A*15
$IIMWV,277,T,13.9,N,A*1C
$GPRMC,071138,A,6009.2031,N,02453.6523,E,000.0,188.0,150510,,,A*70
$IIDPT,007.2,+0.3,*41
$IIHDG,173,,,06,E*11
$IIMWV,274,R,13.9,N,A*19
$IIMWV,276,T,13.7,N,A*13
$GPRMC,071139,A,6009.2031,N,02453.6523,E,000.0,188.0,150510,,,A*71
$IIDPT,007.2,+0.3,*41
$IIHDG,172,,,06,E*10
$IIMWV,273,R,14.2,N,A*12
$IIMWV,274,T,13.9,N,A*1F
$GPRMC,071140,A,6009.2031,N,02453.6522,E,000.0,188.0,150510,,,A*7E
$IIDPT,007.2,+0.3,*41
$IIHDG,172,,,06,E*10
$IIMWV,273,R,14.4,N,A*14
$IIMWV,273,T,14.2,N,A*14
$GPRMC,071141,A,6009.2031,N,02453.6522,E,000.0,188.0,150510,,,A*7F
$IIDPT,007.2,+0.3,*41
$IIHDG,173,,,06,E*11
$GPRMC,071142,A,6009.2031,N,02453.6522,E,000.0,188.0,150510,,,A*7C
$IIMWV,274,R,14.5,N,A*12
$IIMWV,274,T,14.5,N,A*14
$IIDPT,007.2,+0.3,*41
$IIHDG,173,,,06,E*11
$GPRMC,071143,A,6009.2031,N,02453.6522,E,000.0,188.0,150510,,,A*7D
$IIMWV,277,R,14.4,N,A*10
$IIMWV,276,T,14.3,N,A*10
$IIDPT,007.2,+0.3,*41
$GPRMC,071144,A,6009.2031,N,02453.6522,E,000.0,188.0,150510,,,A*7A
$IIHDG,172,,,06,E*10
$IIMWV,278,R,14.3,N,A*18
$IIMWV,277,T,14.4,N,A*16
$IIDPT,007.2,+0.3,*41
$GPRMC,071145,A,6009.2031,N,02453.6522,E,000.0,188.0,150510,,,A*7B
$IIHDG,171,,,06,E*13
$IIMWV,278,R,14.0,N,A*1B
$IIMWV,278,T,14.3,N,A*1E
$IIDPT,007.2,+0.3,*41
$GPRMC,071146,A,6009.2031,N,02453.6522,E,000.0,188.0,150510,,,A*78
$IIHDG,171,,,06,E*13
$IIMWV,277,R,13.7,N,A*14
$IIMWV,278,T,14.0,N,A*1D
$GPRMC,071147,A,6009.2031,N,02453.6522,E,000.0,188.0,150510,,,A*79
$IIDPT,007.2,+0.3,*41
$IIHDG,171,,,06,E*13
$IIMWV,277,R,13.4,N,A*17
$IIMWV,277,T,13.7,N,A*12
$GPRMC,071148,A,6009.2031,N,02453.6522,E,000.0,188.0,150510,,,A*76
$IIDPT,007.2,+0.3,*41
$IIHDG,171,,,06,E*13
$IIMWV,277,R,13.7,N,A*14
$IIMWV,277,T,13.4,N,A*11
$GPRMC,071149,A,6009.2031,N,02453.6522,E,000.0,188.0,150510,,,A*77
$IIDPT,007.2,+0.3,*41
$IIHDG,171,,,06,E*13
$IIMWV,278,R,14.5,N,A*1E
$IIMWV,277,T,13.7,N,A*12
$GPRMC,071150,A,6009.2031,N,02453.6522,E,000.0,188.0,150510,,,A*7F
$IIDPT,007.2,+0.3,*41
$IIHDG,171,,,06,E*13
$IIMWV,277,R,14.8,N,A*1C
$IIMWV,278,T,14.5,N,A*18
$GPRMC,071151,A,6009.2031,N,02453.6522,E,000.0,188.0,150510,,,A*7E
$IIDPT,007.2,+0.3,*41
$IIHDG,171,,,06,E*13
$GPRMC,071152,A,6009.2031,N,02453.6522,E,000.0,188.0,150510,,,A*7D
$IIMWV,276,R,15.2,N,A*16
$IIMWV,276,T,15.2,N,A*10
$IIDPT,007.2,+0.3,*41
$IIHDG,174,,,06,E*16
$GPRMC,071153,A,6009.2031,N,02453.6522,E,000.0,188.0,150510,,,A*7C
$IIMWV,275,R,16.0,N,A*14
$IIMWV,275,T,15.8,N,A*19
$IIDPT,007.2,+0.3,*41
$GPRMC,071154,A,6009.2031,N,02453.6522,E,000.0,188.0,150510,,,A*7B
$IIHDG,174,,,06,E*16
$IIMWV,273,R,15.8,N,A*19
$IIMWV,275,T,16.0,N,A*12
$IIDPT,007.2,+0.3,*41
$GPRMC,071155,A,6009.2031,N,02453.6522,E,000.0,188.0,150510,,,A*7A
$IIHDG,173,,,06,E*11
$IIMWV,271,R,15.9,N,A*1A
$IIMWV,273,T,15.8,N,A*1F
$IIDPT,007.2,+0.3,*41
$GPRMC,071156,A,6009.2031,N,02453.6522,E,000.0,188.0,150510,,,A*79
$IIHDG,174,,,06,E*16
$IIMWV,270,R,15.3,N,A*11
$IIMWV,271,T,15.9,N,A*1C
$GPRMC,071157,A,6009.2031,N,02453.6522,E,000.0,188.0,150510,,,A*78
$IIDPT,007.2,+0.3,*41
$IIHDG,174,,,06,E*16
$IIMWV,269,R,14.9,N,A*12
$IIMWV,270,T,15.3,N,A*17
$GPRMC,071158,A,6009.2031,N,02453.6522,E,000.0,188.0,150510,,,A*77
$IIDPT,007.2,+0.3,*41
$IIHDG,173,,,06,E*11
$IIMWV,269,R,14.6,N,A*1D
$IIMWV,269,T,14.9,N,A*14
$GPRMC,071159,A,6009.2031,N,02453.6522,E,000.0,188.0,150510,,,A*76
$IIDPT,007.2,+0.3,*41
$IIHDG,172,,,06,E*10
$IIMWV,269,R,14.4,N,A*1F
$IIMWV,269,T,14.6,N,A*1B
$GPRMC,071200,A,6009.2031,N,02453.6522,E,000.0,188.0,150510,,,A*79
$IIDPT,007.2,+0.3,*41
$IIHDG,171,,,06,E*13
$IIMWV,269,R,13.8,N,A*14
$IIMWV,269,T,14.4,N,A*19
$GPRMC,071201,A,6009.2031,N,02453.6522,E,000.0,188.0,150510,,,A*78
$IIDPT,007.2,+0.3,*41
$IIHDG,172,,,06,E*10
$GPRMC,071202,A,6009.2031,N,02453.6522,E,000.0,188.0,150510,,,A*7B
$IIMWV,269,R,13.6,N,A*1A
$IIMWV,269,T,13.6,N,A*1C
